Time,Altitude (m),Vertical velocity (m/s),Vertical acceleration (m/s²),Total velocity (m/s),Total acceleration (m/s²),Position East of launch (m),Position North of launch (m),Lateral distance (m),Lateral direction (rad),Lateral velocity (m/s),Lateral acceleration (m/s²),Latitude (rad),Longitude (rad),Gravitational acceleration (m/s²),Angle of attack (rad),Roll rate (rad/s),Pitch rate (rad/s),Yaw rate (rad/s),Mass (g),Propellant mass (g),Longitudinal moment of inertia (kg·m²),Rotational moment of inertia (kg·m²),CP location (cm),CG location (cm),Stability margin calibers (?),Mach number (?),Reynolds number (?),Thrust (N),Drag force (N),Drag coefficient (?),Axial drag coefficient (?),Friction drag coefficient (?),Pressure drag coefficient (?),Base drag coefficient (?),Normal force coefficient (?),Pitch moment coefficient (?),Yaw moment coefficient (?),Side force coefficient (?),Roll moment coefficient (?),Roll forcing coefficient (?),Roll damping coefficient (?),Pitch damping coefficient (?),Reference length (cm),Reference area (cm²),Vertical orientation (zenith) (rad),Lateral orientation (azimuth) (rad),Wind velocity (m/s),Air temperature (°C),Air pressure (mbar),Speed of sound (m/s),Simulation time step (s),Computation time (s),AoA (),Multiplier ()
0,0,0,-9.779,0,9.779,0,0,0,0,0,0,0.49934,-1.4067,9.7922,1.5708,0,0,0,1073.8,84.1,0.086493,2.48E-04,NaN,55.639,NaN,0.0058756,128446,0.01411,0,0.49231,0,0.32382,0.048485,0.12,NaN,NaN,NaN,NaN,NaN,NaN,NaN,NaN,7.62,45.604,1.5708,0,2,15,1,0,0,0,NaN,0
1.50E-05,0,0,-9.7462,0,9.7462,0,0,0,0,0,0.023121,0.49934,-1.4067,9.7922,1.5708,0,0,0,1073.8,84.1,0.086486,2.48E-04,14.112,55.638,-5.4496,0.0058756,128446,0.049385,0,0.49231,0,0.32382,0.048485,0.12,2.2221,-12.109,6.48E-05,0,0,0,0,0,7.62,45.604,1.5708,0,2,15,1,0,0,0,NaN,0
3.75E-05,0,0,-9.6969,0,9.6969,0,0,0,0,0,0.023121,0.49934,-1.4067,9.7922,1.5708,0,-2.68E-06,-2.68E-06,1073.8,84.1,0.086477,2.48E-04,14.112,55.637,-5.4494,0.0058756,128446,0.1023,0,0.49231,0,0.32382,0.048485,0.12,2.2221,-12.11,3.40E-04,0,0,0,0,0,7.62,45.604,1.5708,0,2,15,1,0,0,0,NaN,0
7.13E-05,0,0,-9.623,0,9.623,0,0,0,0,0,0.023121,0.49934,-1.4067,9.7922,1.5708,0,-6.71E-06,-6.71E-06,1073.8,84.099,0.086463,2.48E-04,14.112,55.635,-5.4492,0.0058756,128446,0.18167,0,0.49231,0,0.32382,0.048485,0.12,2.2221,-12.109,9.13E-05,0,0,0,0,0,7.62,45.604,1.5708,0,2,15,1,0,0,0,NaN,0
1.22E-04,0,0,-9.5121,0,9.5121,0,0,0,0,0,0.023121,0.49934,-1.4067,9.7922,1.5708,0,-1.27E-05,-1.27E-05,1073.8,84.099,0.086441,2.48E-04,14.112,55.633,-5.4489,0.0058756,128446,0.30072,0,0.49231,0,0.32382,0.048485,0.12,2.2221,-12.108,-2.23E-04,0,0,0,0,-5.51E-09,7.62,45.604,1.5708,0,2,15,1,0,0,0,NaN,0
1.98E-04,0,0,-9.3458,0,9.3458,0,0,0,0,0,0.023121,0.49934,-1.4067,9.7922,1.5708,0,-2.18E-05,-2.18E-05,1073.8,84.099,0.08641,2.48E-04,14.112,55.629,-5.4484,0.0058756,128446,0.4793,0,0.49231,0,0.32382,0.048485,0.12,2.2221,-12.107,-3.27E-04,0,0,0,0,-1.61E-08,7.62,45.604,1.5708,0,2,15,1,0,0,0,NaN,0
3.12E-04,0,0,-9.0963,0,9.0964,0,0,0,0,0,0.023121,0.49934,-1.4067,9.7922,1.5708,0,-3.54E-05,-3.54E-05,1073.8,84.098,0.086363,2.48E-04,14.112,55.624,-5.4477,0.0058756,128446,0.74717,0,0.49231,0,0.32382,0.048485,0.12,2.2221,-12.106,-2.99E-05,0,0,0,0,-4.25E-08,7.62,45.604,1.5708,0,2,15,1,0,0,0,NaN,0
4.83E-04,0,0,-8.7221,0,8.7222,0,0,0,0,0,0.023121,0.49934,-1.4067,9.7922,1.5708,0,-5.58E-05,-5.58E-05,1073.8,84.096,0.086294,2.48E-04,14.112,55.616,-5.4467,0.0058756,128446,1.149,0,0.49231,0,0.32382,0.048485,0.12,2.2221,-12.103,4.00E-04,0,0,0,0,-1.06E-07,7.62,45.604,1.5708,0,2,15,1,0,0,0,NaN,0
7.39E-04,0,0,-8.1608,0,8.1609,0,0,0,0,0,0.023122,0.49934,-1.4067,9.7922,1.5708,0,-8.64E-05,-8.64E-05,1073.8,84.094,0.086195,2.48E-04,14.112,55.604,-5.4452,0.0058756,128446,1.7517,0,0.49231,0,0.32382,0.048485,0.12,2.2221,-12.099,4.85E-04,0,0,0,0,-2.53E-07,7.62,45.604,1.5708,0,2,15,1,0,0,0,NaN,0
0.0011233,0,0,-7.3189,0,7.3189,0,0,0,0,0,0.023122,0.49934,-1.4067,9.7922,1.5708,0,-1.32E-04,-1.32E-04,1073.8,84.092,0.086053,2.48E-04,14.112,55.588,-5.443,0.0058756,128446,2.6557,0,0.49231,0,0.32382,0.048485,0.12,2.2221,-12.095,4.45E-04,0,0,0,0,-5.95E-07,7.62,45.604,1.5708,0,2,15,1,0,0,0,NaN,0
0.0017,0,0,-5.9377,0,5.9377,0,0,0,0,0,0.023122,0.49934,-1.4067,9.7922,1.5708,0,-2.01E-04,-2.01E-04,1073.8,84.087,0.085856,2.48E-04,14.112,55.565,-5.44,0.0058756,128446,4.0118,0,0.49231,0,0.32382,0.048485,0.12,2.2221,-12.088,-3.03E-04,0,0,0,0,-1.38E-06,7.62,45.604,1.5708,0,2,15,1,0,0,0,NaN,0
0.0025649,0,0,-4.4221,0,4.4222,0,0,0,0,0,0.023122,0.49934,-1.4067,9.7922,1.5708,0,-3.05E-04,-3.05E-04,1073.8,84.081,0.085599,2.48E-04,14.112,55.535,-5.436,0.0058756,128446,5.7661,0,0.49231,0,0.32382,0.048485,0.12,2.2221,-12.08,-9.89E-05,0,0,0,0,-3.16E-06,7.62,45.604,1.5708,0,2,15,1,0,0,0,NaN,0
0.0035649,0,0,-2.6699,0,2.67,0,0,0,0,0,0.023122,0.49934,-1.4067,9.7922,1.5708,0,-4.26E-04,-4.26E-04,1073.7,84.073,0.085354,2.48E-04,14.112,55.506,-5.4322,0.0058756,128446,7.6475,0,0.49231,0,0.32382,0.048485,0.12,2.2221,-12.071,4.19E-04,0,0,0,0,-6.14E-06,7.62,45.604,1.5708,0,2,15,1,0,0,0,NaN,0
0.0045649,0,0,-0.91776,0,0.91805,0,0,0,0,0,0.023122,0.49934,-1.4067,9.7922,1.5708,0,-5.46E-04,-5.46E-04,1073.7,84.066,0.085166,2.48E-04,14.112,55.483,-5.4293,0.0058756,128446,9.5288,0,0.49231,0,0.32382,0.048485,0.12,2.2221,-12.064,-1.94E-04,0,0,0,0,-1.01E-05,7.62,45.604,1.5708,0,2,15,1,0,0,0,NaN,0
0.0055649,0,0,0.83445,0,0.83477,0,0,0,0,0,0.023122,0.49934,-1.4067,9.7922,1.5708,0,-6.67E-04,-6.67E-04,1073.7,84.058,0.085033,2.48E-04,14.112,55.467,-5.4272,0.0058756,128446,11.41,0,0.49231,0,0.32382,0.048485,0.12,2.2221,-12.059,-2.67E-04,0,0,0,0,-1.51E-05,7.62,45.604,1.5708,0,2,15,1,0,0,0,NaN,0
0.0065649,4.17E-07,8.34E-04,2.5867,8.35E-04,2.5868,-8.17E-09,-8.17E-09,1.16E-08,-2.3562,2.31E-05,0.023122,0.49934,-1.4067,9.7922,1.5704,0,-7.87E-04,-7.87E-04,1073.7,84.051,0.084955,2.48E-04,14.112,55.458,-5.4259,0.0058756,128444,13.291,0,0.49231,0,0.32382,0.048485,0.12,2.2221,-12.057,-3.55E-04,0,0,0,0,-2.10E-05,7.62,45.604,1.5708,0,2,15,1,0,0,0,1.588,0
0.0075649,2.55E-06,0.0034212,4.3389,0.0034215,4.339,-3.27E-08,-3.27E-08,4.62E-08,-2.3562,4.62E-05,0.023121,0.49934,-1.4067,9.7922,1.5691,0,-9.08E-04,-9.08E-04,1073.7,84.043,0.08493,2.48E-04,14.112,55.454,-5.4255,0.0058755,128443,15.173,0,0.49231,6.19E-09,0.32382,0.048485,0.12,2.2221,-12.056,8.49E-05,0,0,0,0,-2.80E-05,7.62,45.604,1.5708,0,2,15,1,0,0,0,0.7748,1.26E-08
0.0085649,8.14E-06,0.0077602,6.0912,0.0077605,6.0913,-7.36E-08,-7.36E-08,1.04E-07,-2.3562,6.94E-05,0.023121,0.49934,-1.4067,9.7922,1.5669,0,-0.0010292,-0.0010292,1073.7,84.036,0.084959,2.48E-04,14.112,55.458,-5.426,0.0058755,128442,17.054,0,0.49231,7.21E-08,0.32383,0.048485,0.12,2.2221,-12.056,-1.17E-04,0,0,0,0,-3.59E-05,7.62,45.604,1.5708,0,2,15,1,0,0,0,0.51239,1.47E-07
0.0095649,1.89E-05,0.013851,7.8435,0.013852,7.8436,-1.31E-07,-1.31E-07,1.85E-07,-2.3562,9.25E-05,0.02314,0.49934,-1.4067,9.7922,1.5639,0,-0.0011499,-0.0011499,1073.7,84.028,0.085042,2.48E-04,14.112,55.468,-5.4273,0.0058755,128443,18.935,0,0.49231,4.09E-07,0.32382,0.048485,0.12,2.222,-12.06,-3.53E-04,0,0,0,0,-4.49E-05,7.62,45.604,1.5708,-2.3562,2,15,1,3.85E-07,-3.85E-07,0,0.38276,8.32E-07
0.010565,3.67E-05,0.021695,9.5958,0.021695,9.5959,-2.04E-07,-2.04E-07,2.89E-07,-2.3562,1.16E-04,0.023166,0.49934,-1.4067,9.7922,1.56,0,-0.0012706,-0.0012706,1073.7,84.021,0.08518,2.48E-04,14.112,55.484,-5.4294,0.0058756,128446,20.817,1.75E-08,0.49231,1.57E-06,0.32382,0.048485,0.12,2.2219,-12.064,2.46E-04,0,0,0,0,-5.48E-05,7.62,45.604,1.5708,-2.3562,2,15,1,8.13E-07,-8.13E-07,0,0.30554,3.19E-06
0.011565,6.32E-05,0.031291,11.348,0.031291,11.348,-2.94E-07,-2.94E-07,4.16E-07,-2.3562,1.39E-04,0.0232,0.49934,-1.4067,9.7922,1.5552,0,-0.0013911,-0.0013911,1073.7,84.013,0.085373,2.48E-04,14.112,55.507,-5.4324,0.0058759,128453,22.698,5.24E-08,0.49231,4.69E-06,0.32382,0.048485,0.12,2.2218,-12.07,2.34E-04,0,0,0,0,-6.56E-05,7.62,45.604,1.5708,-2.3562,2,15,1,1.28E-06,-1.28E-06,0,0.25429,9.53E-06
0.012565,1.00E-04,0.042639,13.101,0.04264,13.101,-4.01E-07,-4.01E-07,5.67E-07,-2.3562,1.62E-04,0.023241,0.49934,-1.4067,9.7922,1.5495,0,-0.0015113,-0.0015113,1073.7,84.005,0.085622,2.48E-04,14.112,55.536,-5.4362,0.0058765,128465,24.579,1.32E-07,0.4923,1.18E-05,0.32381,0.048485,0.12,2.2216,-12.077,3.99E-04,0,0,0,0,-7.75E-05,7.62,45.604,1.5708,-2.3562,2,15,1,1.80E-06,-1.80E-06,0,0.21781,2.40E-05
0.013565,1.49E-04,0.05574,14.853,0.05574,14.853,-5.23E-07,-5.23E-07,7.40E-07,-2.3562,1.85E-04,0.023293,0.49934,-1.4067,9.7922,1.5429,0,-0.0016313,-0.0016313,1073.7,83.998,0.085929,2.48E-04,14.113,55.572,-5.4408,0.0058774,128484,26.461,2.94E-07,0.49229,2.63E-05,0.3238,0.048485,0.12,2.2213,-12.086,-1.20E-04,0,0,0,0,-9.02E-05,7.62,45.604,1.5708,-2.3562,2,15,1,2.35E-06,-2.35E-06,0,0.19053,5.35E-05
0.014565,2.13E-04,0.070593,16.321,0.070593,16.321,-6.63E-07,-6.63E-07,9.37E-07,-2.3562,2.09E-04,0.023352,0.49934,-1.4067,9.7922,1.5355,0,-0.0017509,-0.0017509,1073.7,83.99,0.086295,2.48E-04,14.114,55.614,-5.4462,0.0058787,128512,28.036,5.95E-07,0.49227,5.32E-05,0.32378,0.048485,0.12,2.2208,-12.095,-4.53E-04,0,0,0,0,-1.04E-04,7.62,45.604,1.5708,-2.3562,2,15,1,2.95E-06,-2.95E-06,0,0.16936,1.08E-04
0.015565,2.91E-04,0.086914,16.458,0.086914,16.458,-8.18E-07,-8.18E-07,1.16E-06,-2.3562,2.32E-04,0.023409,0.49934,-1.4067,9.7922,1.5274,0,-0.0018703,-0.0018703,1073.7,83.979,0.086415,2.48E-04,14.115,55.627,-5.4479,0.0058805,128552,28.183,1.11E-06,0.49225,9.88E-05,0.32376,0.048485,0.12,2.2202,-12.095,-4.21E-04,0,0,0,0,-1.18E-04,7.62,45.604,1.5708,-2.3562,2,15,1,3.59E-06,-3.59E-06,0,0.15297,2.01E-04
0.016565,3.86E-04,0.10337,16.426,0.10337,16.426,-9.91E-07,-9.91E-07,1.40E-06,-2.3562,2.55E-04,0.023469,0.49934,-1.4067,9.7922,1.5192,0,-0.0019897,-0.0019897,1073.6,83.964,0.086314,2.48E-04,14.116,55.616,-5.4461,0.0058827,128601,28.149,1.85E-06,0.49221,1.65E-04,0.32373,0.048485,0.12,2.2194,-12.087,4.38E-04,0,0,0,0,-1.34E-04,7.62,45.604,1.5708,-2.3562,2,15,1,4.27E-06,-4.27E-06,0,0.1416,3.36E-04
0.017565,4.98E-04,0.1198,16.394,0.1198,16.394,-1.18E-06,-1.18E-06,1.67E-06,-2.3562,2.79E-04,0.023533,0.49934,-1.4067,9.7922,1.511,0,-0.0021093,-0.0021093,1073.6,83.95,0.086217,2.48E-04,14.118,55.604,-5.4444,0.0058853,128658,28.114,2.87E-06,0.49218,2.56E-04,0.32369,0.048485,0.12,2.2184,-12.078,-3.20E-04,0,0,0,0,-1.50E-04,7.62,45.604,1.5708,-2.3562,2,15,1,5.00E-06,-5.00E-06,0,0.13343,5.19E-04
0.018565,6.26E-04,0.13619,16.362,0.13619,16.362,-1.39E-06,-1.39E-06,1.96E-06,-2.3562,3.02E-04,0.023603,0.49934,-1.4067,9.7922,1.5028,0,-0.002229,-0.002229,1073.6,83.936,0.086123,2.48E-04,14.12,55.593,-5.4427,0.0058884,128724,28.08,4.19E-06,0.49214,3.73E-04,0.32365,0.048485,0.12,2.2174,-12.069,2.83E-04,0,0,0,0,-1.68E-04,7.62,45.604,1.5708,-2.3562,2,15,1,5.76E-06,-5.76E-06,0,0.12729,7.58E-04
0.019565,7.70E-04,0.15255,16.331,0.15256,16.331,-1.61E-06,-1.61E-06,2.27E-06,-2.3562,3.26E-04,0.023677,0.49934,-1.4067,9.7922,1.4947,0,-0.0023489,-0.0023489,1073.6,83.921,0.086033,2.48E-04,14.122,55.582,-5.4411,0.0058917,128798,28.045,5.86E-06,0.49209,5.21E-04,0.3236,0.048485,0.12,2.2162,-12.058,4.52E-04,0,0,0,0,-1.86E-04,7.62,45.604,1.5708,-2.3562,2,15,1,6.57E-06,-6.57E-06,0,0.12252,0.0010594
0.020565,9.31E-04,0.16889,16.299,0.16889,16.299,-1.85E-06,-1.85E-06,2.61E-06,-2.3562,3.50E-04,0.023755,0.49934,-1.4067,9.7922,1.4866,0,-0.002469,-0.002469,1073.6,83.907,0.085947,2.48E-04,14.124,55.572,-5.4394,0.0058955,128881,28.011,7.91E-06,0.49204,7.03E-04,0.32355,0.048485,0.12,2.2149,-12.047,7.68E-05,0,0,0,0,-2.05E-04,7.62,45.604,1.5708,-2.3562,2,15,1,7.43E-06,-7.43E-06,0,0.11872,0.0014283
0.021565,0.0011081,0.18518,16.267,0.18518,16.267,-2.10E-06,-2.10E-06,2.97E-06,-2.3562,3.74E-04,0.023838,0.49934,-1.4067,9.7922,1.4785,0,-0.0025892,-0.0025892,1073.6,83.892,0.085863,2.48E-04,14.126,55.562,-5.4378,0.0058997,128971,27.976,1.04E-05,0.49198,9.20E-04,0.32349,0.048485,0.12,2.2135,-12.036,2.94E-04,0,0,0,0,-2.26E-04,7.62,45.604,1.5708,-2.3562,2,15,1,8.32E-06,-8.32E-06,0,0.11564,0.0018709
0.022565,0.0013015,0.20145,16.235,0.20145,16.235,-2.37E-06,-2.37E-06,3.36E-06,-2.3562,3.97E-04,0.023926,0.49934,-1.4067,9.7922,1.4704,0,-0.0027096,-0.0027096,1073.6,83.878,0.085784,2.48E-04,14.129,55.553,-5.4361,0.0059042,129070,27.942,1.33E-05,0.49192,0.0011771,0.32343,0.048485,0.12,2.2119,-12.024,-1.62E-04,0,0,0,0,-2.47E-04,7.62,45.604,1.5708,-2.3562,2,15,1,9.26E-06,-9.26E-06,0,0.1131,0.0023928
0.023565,0.001511,0.21769,16.204,0.21769,16.204,-2.66E-06,-2.66E-06,3.77E-06,-2.3562,4.21E-04,0.024019,0.49934,-1.4067,9.7922,1.4624,0,-0.0028302,-0.0028302,1073.5,83.863,0.085707,2.48E-04,14.132,55.543,-5.4345,0.0059091,129178,27.907,1.67E-05,0.49185,0.0014751,0.32337,0.048485,0.12,2.2103,-12.011,1.23E-04,0,0,0,0,-2.69E-04,7.62,45.604,1.5708,-2.3562,2,15,1,1.02E-05,-1.02E-05,0,0.11097,0.002999
0.024565,0.0017368,0.23389,16.172,0.23389,16.172,-2.97E-06,-2.97E-06,4.20E-06,-2.3562,4.45E-04,0.024116,0.49934,-1.4067,9.7922,1.4544,0,-0.002951,-0.002951,1073.5,83.849,0.085634,2.48E-04,14.136,55.535,-5.4329,0.0059144,129293,27.873,2.06E-05,0.49178,0.0018169,0.32329,0.048485,0.12,2.2085,-11.998,2.55E-04,0,0,0,0,-2.92E-04,7.62,45.604,1.5708,-2.3562,2,15,1,1.13E-05,-1.13E-05,0,0.10918,0.0036945
0.025565,0.0019788,0.25006,16.14,0.25006,16.14,-3.29E-06,-3.29E-06,4.66E-06,-2.3562,4.70E-04,0.024217,0.49934,-1.4067,9.7922,1.4464,0,-0.003072,-0.003072,1073.5,83.834,0.085565,2.48E-04,14.139,55.526,-5.4314,0.00592,129416,27.838,2.50E-05,0.49171,0.0022046,0.32322,0.048485,0.12,2.2065,-11.984,4.06E-04,0,0,0,0,-3.15E-04,7.62,45.604,1.5708,-2.3562,2,15,1,1.23E-05,-1.23E-05,0,0.10766,0.0044837
0.026565,0.0022369,0.2662,16.108,0.2662,16.108,-3.63E-06,-3.63E-06,5.14E-06,-2.3562,4.94E-04,0.024323,0.49934,-1.4067,9.7922,1.4385,0,-0.0031931,-0.0031931,1073.5,83.82,0.085499,2.48E-04,14.143,55.518,-5.4298,0.005926,129547,27.804,3.00E-05,0.49162,0.0026404,0.32314,0.048485,0.12,2.2045,-11.97,2.42E-04,0,0,0,0,-3.40E-04,7.62,45.604,1.5708,-2.3562,2,15,1,1.34E-05,-1.34E-05,0,0.10636,0.0053709
0.027565,0.0025112,0.28231,16.076,0.28231,16.076,-3.99E-06,-3.99E-06,5.65E-06,-2.3562,5.18E-04,0.024434,0.49934,-1.4067,9.7922,1.4306,0,-0.0033144,-0.0033144,1073.5,83.805,0.085436,2.48E-04,14.147,55.51,-5.4283,0.0059324,129686,27.769,3.56E-05,0.49154,0.0031262,0.32305,0.048485,0.12,2.2023,-11.955,3.61E-04,0,0,0,0,-3.66E-04,7.62,45.604,1.5708,-2.3562,2,15,1,1.46E-05,-1.46E-05,0,0.10524,0.00636
0.028565,0.0028015,0.29839,16.045,0.29839,16.045,-4.37E-06,-4.37E-06,6.18E-06,-2.3562,5.43E-04,0.024549,0.49934,-1.4067,9.7922,1.4227,0,-0.003436,-0.003436,1073.5,83.791,0.085376,2.48E-04,14.151,55.503,-5.4268,0.0059391,129833,27.735,4.18E-05,0.49145,0.0036636,0.32296,0.048485,0.12,2.2001,-11.939,-9.38E-05,0,0,0,0,-3.92E-04,7.62,45.604,1.5708,-2.3562,2,15,1,1.58E-05,-1.58E-05,0,0.10428,0.0074546
0.029565,0.0031079,0.31443,16.013,0.31443,16.013,-4.76E-06,-4.76E-06,6.73E-06,-2.3562,5.67E-04,0.024668,0.49934,-1.4067,9.7922,1.4149,0,-0.0035577,-0.0035577,1073.5,83.776,0.08532,2.48E-04,14.155,55.496,-5.4253,0.0059462,129988,27.701,4.87E-05,0.49135,0.0042542,0.32286,0.048485,0.12,2.1977,-11.923,-1.79E-04,0,0,0,0,-4.19E-04,7.62,45.604,1.5707,-2.3562,2,15,1,1.70E-05,-1.70E-05,0,0.10344,0.0086581
0.030565,0.0034304,0.33045,15.981,0.33045,15.981,-5.17E-06,-5.17E-06,7.31E-06,-2.3562,5.92E-04,0.024792,0.49934,-1.4067,9.7922,1.4071,0,-0.0036797,-0.0036797,1073.4,83.762,0.085267,2.48E-04,14.16,55.49,-5.4238,0.0059536,130150,27.666,5.62E-05,0.49125,0.0048995,0.32276,0.048485,0.12,2.1952,-11.906,4.24E-04,0,0,0,0,-4.47E-04,7.62,45.604,1.5707,-2.3562,2,15,1,1.83E-05,-1.83E-05,0,0.10272,0.0099735
0.031565,0.0037688,0.34643,15.949,0.34643,15.949,-5.60E-06,-5.60E-06,7.92E-06,-2.3562,6.17E-04,0.024921,0.49934,-1.4067,9.7922,1.3993,0,-0.0038018,-0.0038018,1073.4,83.747,0.085217,2.48E-04,14.165,55.483,-5.4224,0.0059613,130319,27.632,6.44E-05,0.49115,0.0056008,0.32266,0.048485,0.12,2.1926,-11.888,2.47E-04,0,0,0,0,-4.76E-04,7.62,45.604,1.5707,-2.3562,2,15,1,1.96E-05,-1.96E-05,0,0.1021,0.011403
0.032565,0.0041232,0.36238,15.918,0.36238,15.918,-6.04E-06,-6.04E-06,8.55E-06,-2.3562,6.42E-04,0.025053,0.49934,-1.4067,9.7922,1.3916,0,-0.0039242,-0.0039242,1073.4,83.733,0.085171,2.48E-04,14.17,55.478,-5.421,0.0059694,130497,27.597,7.33E-05,0.49104,0.0063592,0.32255,0.048485,0.12,2.1899,-11.871,3.29E-04,0,0,0,0,-5.06E-04,7.62,45.604,1.5707,-2.3562,2,15,1,2.10E-05,-2.10E-05,0,0.10155,0.012951
0.033565,0.0044936,0.37829,15.886,0.3783,15.886,-6.51E-06,-6.51E-06,9.20E-06,-2.3562,6.67E-04,0.025191,0.49934,-1.4067,9.7922,1.3839,0,-0.0040468,-0.0040468,1073.4,83.718,0.085127,2.48E-04,14.175,55.472,-5.4196,0.0059779,130681,27.563,8.30E-05,0.49093,0.0071758,0.32244,0.048485,0.12,2.1871,-11.852,4.11E-04,0,0,0,0,-5.37E-04,7.62,45.604,1.5707,-2.3562,2,15,1,2.24E-05,-2.24E-05,0,0.10109,0.014617
0.034565,0.0048798,0.39418,15.854,0.39418,15.854,-6.99E-06,-6.99E-06,9.88E-06,-2.3562,6.92E-04,0.025332,0.49934,-1.4067,9.7922,1.3762,0,-0.0041696,-0.0041696,1073.4,83.704,0.085087,2.48E-04,14.181,55.467,-5.4182,0.0059867,130873,27.528,9.34E-05,0.49081,0.0080514,0.32232,0.048485,0.12,2.1842,-11.834,-2.89E-04,0,0,0,0,-5.68E-04,7.62,45.604,1.5707,-2.3562,2,15,1,2.38E-05,-2.38E-05,0,0.10069,0.016404
0.035565,0.0052819,0.41003,15.822,0.41004,15.822,-7.48E-06,-7.48E-06,1.06E-05,-2.3562,7.18E-04,0.025478,0.49934,-1.4067,9.7922,1.3686,0,-0.0042926,-0.0042926,1073.4,83.689,0.08505,2.48E-04,14.186,55.463,-5.4168,0.0059958,131072,27.494,1.05E-04,0.49069,0.0089867,0.3222,0.048485,0.12,2.1812,-11.815,2.37E-04,0,0,0,0,-6.00E-04,7.62,45.604,1.5707,-2.3562,2,15,1,2.53E-05,-2.53E-05,0,0.10035,0.018315
0.036565,0.0056998,0.42586,15.79,0.42586,15.79,-8.00E-06,-8.00E-06,1.13E-05,-2.3562,7.43E-04,0.025628,0.49934,-1.4067,9.7922,1.361,0,-0.0044159,-0.0044159,1073.3,83.675,0.085017,2.48E-04,14.192,55.458,-5.4155,0.0060052,131279,27.459,1.17E-04,0.49056,0.0099824,0.32207,0.048485,0.12,2.1781,-11.795,-1.81E-04,0,0,0,0,-6.33E-04,7.62,45.604,1.5707,-2.3562,2,15,1,2.69E-05,-2.69E-05,0,0.10006,0.020349
0.037565,0.0061336,0.44165,15.759,0.44165,15.759,-8.54E-06,-8.54E-06,1.21E-05,-2.3562,7.69E-04,0.025783,0.49934,-1.4067,9.7922,1.3535,0,-0.0045394,-0.0045394,1073.3,83.66,0.084986,2.48E-04,14.198,55.454,-5.4142,0.006015,131492,27.425,1.29E-04,0.49043,0.011039,0.32194,0.048485,0.12,2.1749,-11.774,2.98E-04,0,0,0,0,-6.67E-04,7.62,45.604,1.5707,-2.3562,2,15,1,2.85E-05,-2.85E-05,0,0.099818,0.022509
0.038565,0.0065831,0.45741,15.727,0.45741,15.727,-9.09E-06,-9.09E-06,1.29E-05,-2.3562,7.95E-04,0.025941,0.49934,-1.4067,9.7922,1.346,0,-0.0046631,-0.0046631,1073.3,83.646,0.084959,2.48E-04,14.205,55.451,-5.4129,0.0060251,131712,27.39,1.43E-04,0.4903,0.012157,0.32181,0.048485,0.12,2.1716,-11.754,-4.18E-04,0,0,0,0,-7.02E-04,7.62,45.604,1.5707,-2.3562,2,15,1,3.01E-05,-3.01E-05,0,0.09962,0.024794
0.039565,0.0070484,0.47313,15.695,0.47313,15.695,-9.66E-06,-9.66E-06,1.37E-05,-2.3562,8.21E-04,0.026104,0.49934,-1.4067,9.7922,1.3385,0,-0.0047871,-0.0047871,1073.3,83.632,0.084935,2.48E-04,14.211,55.448,-5.4116,0.0060355,131940,27.356,1.57E-04,0.49016,0.013336,0.32167,0.048485,0.12,2.1682,-11.732,4.79E-04,0,0,0,0,-7.37E-04,7.62,45.604,1.5707,-2.3562,2,15,1,3.18E-05,-3.18E-05,0,0.099462,0.027207
0.040565,0.0075294,0.48883,15.663,0.48883,15.663,-1.03E-05,-1.03E-05,1.45E-05,-2.3562,8.47E-04,0.026271,0.49934,-1.4067,9.7922,1.3311,0,-0.0049113,-0.0049113,1073.3,83.617,0.084914,2.48E-04,14.218,55.445,-5.4104,0.0060462,132174,27.321,1.72E-04,0.49002,0.014576,0.32153,0.048485,0.12,2.1647,-11.711,-4.64E-04,0,0,0,0,-7.73E-04,7.62,45.604,1.5707,-2.3562,2,15,1,3.35E-05,-3.35E-05,0,0.099339,0.029747
0.041565,0.008026,0.50449,15.631,0.50449,15.631,-1.09E-05,-1.09E-05,1.54E-05,-2.3562,8.73E-04,0.026443,0.49934,-1.4067,9.7922,1.3237,0,-0.0050358,-0.0050358,1073.3,83.603,0.084896,2.48E-04,14.224,55.442,-5.4092,0.0060572,132415,27.287,1.89E-04,0.48987,0.015879,0.32138,0.048485,0.12,2.1612,-11.689,2.94E-04,0,0,0,0,-8.10E-04,7.62,45.604,1.5707,-2.3562,2,15,1,3.52E-05,-3.52E-05,0,0.09925,0.032414
0.042565,0.0085383,0.52012,15.6,0.52012,15.6,-1.15E-05,-1.15E-05,1.62E-05,-2.3562,9.00E-04,0.026618,0.49934,-1.4067,9.7922,1.3164,0,-0.0051605,-0.0051605,1073.3,83.588,0.084881,2.48E-04,14.232,55.44,-5.408,0.0060685,132662,27.252,2.06E-04,0.48972,0.017242,0.32123,0.048485,0.12,2.1575,-11.667,-3.35E-04,0,0,0,0,-8.47E-04,7.62,45.604,1.5707,-2.3562,2,15,1,3.70E-05,-3.70E-05,0,0.099191,0.035208
0.043565,0.0090663,0.53572,15.568,0.53572,15.568,-1.21E-05,-1.21E-05,1.72E-05,-2.3562,9.27E-04,0.026798,0.49934,-1.4067,9.7922,1.3091,0,-0.0052854,-0.0052854,1073.2,83.574,0.084869,2.48E-04,14.239,55.439,-5.4068,0.0060801,132916,27.218,2.23E-04,0.48957,0.018667,0.32108,0.048485,0.12,2.1538,-11.644,3.72E-04,0,0,0,0,-8.85E-04,7.62,45.604,1.5707,-2.3562,2,15,1,3.89E-05,-3.89E-05,0,0.099161,0.03813
0.044565,0.0096098,0.55129,15.536,0.55129,15.536,-1.28E-05,-1.28E-05,1.81E-05,-2.3562,9.54E-04,0.026982,0.49934,-1.4067,9.7922,1.3018,0,-0.0054107,-0.0054107,1073.2,83.559,0.084861,2.48E-04,14.246,55.437,-5.4057,0.0060921,133177,27.183,2.42E-04,0.48941,0.020153,0.32093,0.048485,0.12,2.15,-11.621,-3.59E-04,0,0,0,0,-9.24E-04,7.62,45.604,1.5707,-2.3562,2,15,1,4.08E-05,-4.08E-05,0,0.099157,0.041178
0.045565,0.010169,0.56683,15.504,0.56683,15.504,-1.35E-05,-1.35E-05,1.91E-05,-2.3562,9.81E-04,0.02717,0.49934,-1.4067,9.7922,1.2946,0,-0.0055361,-0.0055361,1073.2,83.545,0.084856,2.48E-04,14.254,55.437,-5.4046,0.0061043,133444,27.149,2.62E-04,0.48926,0.0217,0.32077,0.048485,0.12,2.1461,-11.598,-4.10E-04,0,0,0,0,-9.63E-04,7.62,45.604,1.5707,-2.3562,2,15,1,4.27E-05,-4.27E-05,0,0.099178,0.044353
0.046565,0.010743,0.58233,15.472,0.58233,15.472,-1.42E-05,-1.42E-05,2.01E-05,-2.3562,0.0010079,0.027362,0.49934,-1.4067,9.7922,1.2875,0,-0.0056619,-0.0056619,1073.2,83.53,0.084853,2.48E-04,14.262,55.436,-5.4035,0.0061168,133718,27.114,2.82E-04,0.48909,0.023307,0.3206,0.048485,0.12,2.1421,-11.574,-7.72E-06,0,0,0,0,-0.0010036,7.62,45.604,1.5707,-2.3562,2,15,1,4.47E-05,-4.47E-05,0,0.099222,0.047653
0.047565,0.011333,0.5978,15.441,0.5978,15.441,-1.49E-05,-1.49E-05,2.11E-05,-2.3562,0.0010354,0.027559,0.49934,-1.4067,9.7922,1.2803,0,-0.0057878,-0.0057878,1073.2,83.516,0.084854,2.48E-04,14.269,55.436,-5.4024,0.0061296,133997,27.08,3.04E-04,0.48893,0.024973,0.32044,0.048485,0.12,2.1381,-11.549,3.81E-04,0,0,0,0,-0.0010444,7.62,45.604,1.5707,-2.3562,2,15,1,4.67E-05,-4.67E-05,0,0.099287,0.051077
0.048565,0.011939,0.61324,15.409,0.61325,15.409,-1.56E-05,-1.56E-05,2.21E-05,-2.3562,0.0010631,0.027759,0.49934,-1.4067,9.7922,1.2733,0,-0.0059141,-0.0059141,1073.2,83.501,0.084858,2.48E-04,14.278,55.436,-5.4014,0.0061426,134283,27.045,3.26E-04,0.48876,0.026698,0.32027,0.048485,0.12,2.134,-11.526,-3.37E-04,0,0,0,0,-0.0010858,7.62,45.604,1.5707,-2.3562,2,15,1,4.88E-05,-4.88E-05,0,0.099373,0.054624
0.049565,0.01256,0.62865,15.377,0.62865,15.377,-1.64E-05,-1.64E-05,2.32E-05,-2.3562,0.0010909,0.027963,0.49934,-1.4067,9.7922,1.2662,0,-0.0060406,-0.0060406,1073.2,83.487,0.084865,2.48E-04,14.286,55.437,-5.4004,0.006156,134575,27.011,3.49E-04,0.48859,0.028481,0.3201,0.048485,0.12,2.1298,-11.5,-3.07E-04,0,0,0,0,-0.0011278,7.62,45.604,1.5707,-2.3562,2,15,1,5.09E-05,-5.09E-05,0,0.099478,0.058293
0.050565,0.013196,0.64403,15.345,0.64403,15.345,-1.72E-05,-1.72E-05,2.43E-05,-2.3562,0.001119,0.028172,0.49934,-1.4067,9.7922,1.2593,0,-0.0061674,-0.0061674,1073.1,83.472,0.084876,2.48E-04,14.294,55.438,-5.3994,0.0061696,134873,26.976,3.74E-04,0.48841,0.030322,0.31992,0.048485,0.12,2.1256,-11.476,4.99E-04,0,0,0,0,-0.0011705,7.62,45.604,1.5706,-2.3562,2,15,1,5.30E-05,-5.30E-05,0,0.099601,0.062083
0.051565,0.013848,0.65938,15.313,0.65938,15.313,-1.80E-05,-1.80E-05,2.54E-05,-2.3562,0.0011473,0.028384,0.49934,-1.4067,9.7922,1.2523,0,-0.0062944,-0.0062944,1073.1,83.458,0.084889,2.48E-04,14.303,55.439,-5.3984,0.0061835,135176,26.942,3.99E-04,0.48823,0.032219,0.31974,0.048485,0.12,2.1213,-11.451,1.05E-04,0,0,0,0,-0.0012137,7.62,45.604,1.5706,-2.3562,2,15,1,5.52E-05,-5.52E-05,0,0.099742,0.065991
0.052565,0.014515,0.67469,15.281,0.67469,15.281,-1.88E-05,-1.88E-05,2.66E-05,-2.3562,0.0011758,0.0286,0.49934,-1.4067,9.7922,1.2454,0,-0.0064218,-0.0064218,1073.1,83.443,0.084906,2.48E-04,14.312,55.441,-5.3975,0.0061977,135486,26.907,4.25E-04,0.48805,0.034172,0.31956,0.048485,0.12,2.1169,-11.425,1.29E-04,0,0,0,0,-0.0012576,7.62,45.604,1.5706,-2.3562,2,15,1,5.75E-05,-5.75E-05,0,0.099899,0.070017
0.053565,0.015197,0.68997,15.25,0.68997,15.25,-1.97E-05,-1.97E-05,2.78E-05,-2.3562,0.0012045,0.028821,0.49934,-1.4067,9.7922,1.2386,0,-0.0065494,-0.0065494,1073.1,83.429,0.084925,2.48E-04,14.321,55.443,-5.3966,0.0062121,135801,26.873,4.52E-04,0.48787,0.03618,0.31938,0.048485,0.12001,2.1125,-11.399,-3.85E-04,0,0,0,0,-0.001302,7.62,45.604,1.5706,-2.3562,2,15,1,5.98E-05,-5.98E-05,0,0.10007,0.074159
0.054565,0.015895,0.70522,15.218,0.70522,15.218,-2.05E-05,-2.05E-05,2.90E-05,-2.3562,0.0012334,0.029045,0.49934,-1.4067,9.7922,1.2318,0,-0.0066772,-0.0066772,1073.1,83.414,0.084948,2.48E-04,14.33,55.445,-5.3957,0.0062268,136122,26.838,4.80E-04,0.48768,0.038241,0.31919,0.048485,0.12001,2.108,-11.373,-2.27E-04,0,0,0,0,-0.0013469,7.62,45.604,1.5706,-2.3562,2,15,1,6.21E-05,-6.21E-05,0,0.10026,0.078413
0.055565,0.016608,0.72044,15.186,0.72044,15.186,-2.14E-05,-2.14E-05,3.03E-05,-2.3562,0.0012626,0.029273,0.49934,-1.4067,9.7922,1.225,0,-0.0068054,-0.0068054,1073.1,83.4,0.084974,2.48E-04,14.339,55.448,-5.3949,0.0062417,136449,26.804,5.09E-04,0.48749,0.040354,0.319,0.048485,0.12001,2.1035,-11.347,-4.19E-04,0,0,0,0,-0.0013924,7.62,45.604,1.5706,-2.3562,2,15,1,6.45E-05,-6.45E-05,0,0.10046,0.08278
0.056565,0.017336,0.73562,15.154,0.73563,15.154,-2.23E-05,-2.23E-05,3.15E-05,-2.3562,0.001292,0.029505,0.49934,-1.4067,9.7922,1.2183,0,-0.0069338,-0.0069338,1073.1,83.385,0.085004,2.48E-04,14.348,55.451,-5.3941,0.0062569,136781,26.769,5.39E-04,0.4873,0.04252,0.31881,0.048485,0.12001,2.0989,-11.32,4.40E-04,0,0,0,0,-0.0014385,7.62,45.604,1.5706,-2.3562,2,15,1,6.69E-05,-6.69E-05,0,0.10068,0.087255
0.057565,0.018079,0.75078,15.122,0.75078,15.122,-2.32E-05,-2.32E-05,3.28E-05,-2.3562,0.0013216,0.029741,0.49934,-1.4067,9.7922,1.2117,0,-0.0070625,-0.0070625,1073,83.371,0.085036,2.48E-04,14.358,55.455,-5.3933,0.0062723,137118,26.735,5.70E-04,0.48711,0.044735,0.31862,0.048485,0.12001,2.0942,-11.293,3.16E-04,0,0,0,0,-0.0014851,7.62,45.604,1.5706,-2.3562,2,15,1,6.94E-05,-6.94E-05,0,0.10091,0.091838
0.058565,0.018837,0.7659,15.09,0.7659,15.091,-2.42E-05,-2.42E-05,3.42E-05,-2.3562,0.0013515,0.029981,0.49934,-1.4067,9.7922,1.2051,0,-0.0071915,-0.0071915,1073,83.356,0.085072,2.48E-04,14.368,55.459,-5.3926,0.006288,137461,26.7,6.01E-04,0.48691,0.046999,0.31842,0.048485,0.12001,2.0895,-11.266,5.84E-05,0,0,0,0,-0.0015321,7.62,45.604,1.5706,-2.3562,2,15,1,7.19E-05,-7.19E-05,0,0.10115,0.096526
0.059565,0.019611,0.78099,15.059,0.78099,15.059,-2.51E-05,-2.51E-05,3.55E-05,-2.3562,0.0013816,0.030225,0.49934,-1.4067,9.7922,1.1985,0,-0.0073208,-0.0073208,1073,83.342,0.08511,2.48E-04,14.378,55.463,-5.3919,0.0063039,137809,26.666,6.34E-04,0.48671,0.049312,0.31822,0.048485,0.12001,2.0848,-11.24,-1.44E-04,0,0,0,0,-0.0015797,7.62,45.604,1.5706,-2.3562,2,15,1,7.45E-05,-7.45E-05,0,0.10141,0.10132
0.060565,0.020399,0.79605,15.027,0.79605,15.027,-2.61E-05,-2.61E-05,3.69E-05,-2.3562,0.0014119,0.030472,0.49934,-1.4067,9.7922,1.192,0,-0.0074504,-0.0074504,1073,83.328,0.085153,2.48E-04,14.387,55.468,-5.3912,0.0063201,138162,26.632,6.68E-04,0.48651,0.05167,0.31802,0.048485,0.12001,2.08,-11.212,-3.89E-06,0,0,0,0,-0.0016278,7.62,45.604,1.5706,-2.3562,2,15,1,7.71E-05,-7.71E-05,0,0.10167,0.10621
0.061565,0.021203,0.81108,14.995,0.81108,14.995,-2.71E-05,-2.71E-05,3.84E-05,-2.3562,0.0014425,0.030724,0.49934,-1.4067,9.7922,1.1855,0,-0.0075802,-0.0075802,1073,83.313,0.085198,2.48E-04,14.398,55.473,-5.3905,0.0063365,138520,26.597,7.03E-04,0.48631,0.054074,0.31782,0.048485,0.12001,2.0752,-11.185,3.82E-04,0,0,0,0,-0.0016763,7.62,45.604,1.5706,-2.3562,2,15,1,7.98E-05,-7.98E-05,0,0.10195,0.11119
0.062565,0.022021,0.82607,14.963,0.82607,14.963,-2.82E-05,-2.82E-05,3.98E-05,-2.3562,0.0014734,0.030979,0.49934,-1.4067,9.7922,1.1791,0,-0.0077103,-0.0077103,1073,83.299,0.085246,2.48E-04,14.408,55.479,-5.3899,0.0063531,138883,26.563,7.38E-04,0.4861,0.056522,0.31761,0.048485,0.12001,2.0703,-11.157,-4.94E-04,0,0,0,0,-0.0017253,7.62,45.604,1.5706,-2.3562,2,15,1,8.25E-05,-8.25E-05,0,0.10224,0.11628
0.063565,0.022855,0.84104,14.931,0.84104,14.931,-2.92E-05,-2.92E-05,4.13E-05,-2.3562,0.0015045,0.031238,0.49934,-1.4067,9.7922,1.1727,0,-0.0078407,-0.0078407,1073,83.284,0.085298,2.48E-04,14.418,55.485,-5.3893,0.0063699,139251,26.528,7.75E-04,0.4859,0.059013,0.31741,0.048485,0.12001,2.0654,-11.129,-2.02E-04,0,0,0,0,-0.0017747,7.62,45.604,1.5706,-2.3562,2,15,1,8.52E-05,-8.52E-05,0,0.10255,0.12145
0.064565,0.023704,0.85597,14.899,0.85597,14.9,-3.03E-05,-3.03E-05,4.28E-05,-2.3562,0.0015359,0.0315,0.49934,-1.4067,9.7922,1.1664,0,-0.0079714,-0.0079714,1072.9,83.27,0.085353,2.48E-04,14.429,55.491,-5.3887,0.006387,139624,26.494,8.13E-04,0.48569,0.061544,0.3172,0.048485,0.12001,2.0605,-11.101,-4.28E-04,0,0,0,0,-0.0018246,7.62,45.604,1.5705,-2.3562,2,15,1,8.80E-05,-8.80E-05,0,0.10286,0.12672
0.065565,0.024567,0.87087,14.868,0.87087,14.868,-3.14E-05,-3.14E-05,4.44E-05,-2.3562,0.0015675,0.031766,0.49934,-1.4067,9.7922,1.1601,0,-0.0081024,-0.0081024,1072.9,83.255,0.085412,2.48E-04,14.439,55.498,-5.3882,0.0064043,1.40E+05,26.459,8.51E-04,0.48547,0.064116,0.31698,0.048485,0.12001,2.0555,-11.074,-2.38E-05,0,0,0,0,-0.0018749,7.62,45.604,1.5705,-2.3562,2,15,1,9.09E-05,-9.09E-05,0,0.10318,0.13207
0.066565,0.025445,0.88574,14.836,0.88574,14.836,-3.25E-05,-3.25E-05,4.60E-05,-2.3562,0.0015994,0.032036,0.49934,-1.4067,9.7922,1.1539,0,-0.0082337,-0.0082337,1072.9,83.241,0.085474,2.48E-04,14.45,55.505,-5.3877,0.0064218,140384,26.425,8.91E-04,0.48526,0.066725,0.31677,0.048485,0.12001,2.0505,-11.045,-3.28E-04,0,0,0,0,-0.0019256,7.62,45.604,1.5705,-2.3562,2,15,1,9.37E-05,-9.37E-05,0,0.10351,0.1375
0.067565,0.026338,0.90057,14.804,0.90057,14.804,-3.37E-05,-3.37E-05,4.76E-05,-2.3562,0.0016316,0.03231,0.49934,-1.4067,9.7922,1.1477,0,-0.0083653,-0.0083653,1072.9,83.226,0.085539,2.48E-04,14.461,55.512,-5.3873,0.0064395,140771,26.39,9.31E-04,0.48505,0.069372,0.31656,0.048485,0.12001,2.0454,-11.017,1.58E-04,0,0,0,0,-0.0019767,7.62,45.604,1.5705,-2.3562,2,15,1,9.67E-05,-9.67E-05,0,0.10386,0.14302
0.068565,0.027246,0.91538,14.772,0.91538,14.772,-3.48E-05,-3.48E-05,4.92E-05,-2.3562,0.001664,0.032587,0.49934,-1.4067,9.7922,1.1415,0,-0.0084971,-0.0084971,1072.9,83.212,0.085607,2.48E-04,14.472,55.52,-5.3868,0.0064574,141163,26.356,9.72E-04,0.48483,0.072055,0.31634,0.048485,0.12001,2.0403,-10.989,-5.55E-05,0,0,0,0,-0.0020282,7.62,45.604,1.5705,-2.3562,2,15,1,9.97E-05,-9.97E-05,0,0.10421,0.14862
0.069565,0.028169,0.93015,14.74,0.93015,14.74,-3.60E-05,-3.60E-05,5.09E-05,-2.3562,0.0016968,0.032868,0.49934,-1.4067,9.7922,1.1354,0,-0.0086293,-0.0086293,1072.9,83.197,0.085679,2.48E-04,14.483,55.528,-5.3864,0.0064755,141558,26.321,0.0010147,0.48461,0.074771,0.31612,0.048485,0.12001,2.0352,-10.96,1.66E-05,0,0,0,0,-0.0020801,7.62,45.604,1.5705,-2.3562,2,15,1,1.03E-04,-1.03E-04,0,0.10457,0.15429
0.070565,0.029107,0.94489,14.708,0.94489,14.708,-3.72E-05,-3.72E-05,5.26E-05,-2.3562,0.0017298,0.033153,0.49934,-1.4067,9.7922,1.1294,0,-0.0087617,-0.0087617,1072.9,83.183,0.085755,2.48E-04,14.494,55.536,-5.3861,0.0064938,141958,26.287,0.001058,0.48439,0.077521,0.3159,0.048485,0.12001,2.0301,-10.932,2.72E-04,0,0,0,0,-0.0021324,7.62,45.604,1.5705,-2.3562,2,15,1,1.06E-04,-1.06E-04,0,0.10494,0.16004
0.071565,0.030059,0.9596,14.677,0.9596,14.677,-3.85E-05,-3.85E-05,5.44E-05,-2.3562,0.0017631,0.033441,0.49934,-1.4067,9.7922,1.1234,0,-0.0088944,-0.0088944,1072.8,83.168,0.085833,2.48E-04,14.506,55.545,-5.3858,0.0065123,142363,26.252,0.0011022,0.48417,0.080301,0.31568,0.048485,0.12001,2.0249,-10.903,-1.18E-04,0,0,0,0,-0.002185,7.62,45.604,1.5705,-2.3562,2,15,1,1.09E-04,-1.09E-04,0,0.10532,0.16585
0.072565,0.031026,0.97427,14.645,0.97427,14.645,-3.97E-05,-3.97E-05,5.62E-05,-2.3562,0.0017967,0.033733,0.49934,-1.4067,9.7922,1.1175,0,-0.0090274,-0.0090274,1072.8,83.154,0.085916,2.48E-04,14.517,55.555,-5.3855,0.006531,142772,26.218,0.0011473,0.48395,0.083112,0.31546,0.048485,0.12001,2.0197,-10.875,-2.32E-04,0,0,0,0,-0.002238,7.62,45.604,1.5705,-2.3562,2,15,1,1.12E-04,-1.12E-04,0,0.10571,0.17174
0.073565,0.032007,0.98892,14.613,0.98892,14.613,-4.10E-05,-4.10E-05,5.80E-05,-2.3562,0.0018306,0.034028,0.49934,-1.4067,9.7922,1.1116,0,-0.0091607,-0.0091607,1072.8,83.139,0.086002,2.48E-04,14.529,55.564,-5.3852,0.0065498,143184,26.183,0.0011934,0.48373,0.085951,0.31524,0.048485,0.12001,2.0145,-10.846,-3.79E-04,0,0,0,0,-0.0022913,7.62,45.604,1.5705,-2.3562,2,15,1,1.15E-04,-1.15E-04,0,0.10611,0.17769
0.074565,0.033004,1.0035,14.581,1.0035,14.581,-4.23E-05,-4.23E-05,5.98E-05,-2.3562,0.0018647,0.034327,0.49934,-1.4067,9.7922,1.1057,0,-0.0092943,-0.0092943,1072.8,83.125,0.086091,2.48E-04,14.541,55.574,-5.385,0.0065689,143601,26.149,0.0012403,0.4835,0.088818,0.31501,0.048485,0.12001,2.0093,-10.818,1.80E-04,0,0,0,0,-0.0023449,7.62,45.604,1.5705,-2.3562,2,15,1,1.19E-04,-1.19E-04,0,0.10652,0.1837
0.075565,0.034014,1.0181,14.549,1.0181,14.549,-4.36E-05,-4.36E-05,6.17E-05,-2.3562,0.0018992,0.034629,0.49934,-1.4067,9.7922,1.0999,0,-0.0094281,-0.0094281,1072.8,83.11,0.086184,2.48E-04,14.552,55.585,-5.3848,0.0065882,144022,26.114,0.0012882,0.48328,0.09171,0.31479,0.048485,0.12001,2.0041,-10.789,-3.19E-04,0,0,0,0,-0.0023989,7.62,45.604,1.5705,-2.3562,2,15,1,1.22E-04,-1.22E-04,0,0.10694,0.18977
0.076565,0.03504,1.0327,14.521,1.0327,14.521,-4.50E-05,-4.50E-05,6.36E-05,-2.3562,0.001934,0.034936,0.49934,-1.4067,9.7922,1.0941,0,-0.0095623,-0.0095623,1072.8,83.096,0.08628,2.48E-04,14.564,55.595,-5.3847,0.0066076,144446,26.084,0.0013371,0.48305,0.094627,0.31456,0.048485,0.12001,1.9988,-10.761,-3.01E-04,0,0,0,0,-0.0024531,7.62,45.604,1.5704,-2.3562,2,15,1,1.25E-04,-1.25E-04,0,0.10736,0.19589
0.077565,0.03608,1.0472,14.51,1.0472,14.51,-4.64E-05,-4.64E-05,6.56E-05,-2.3562,0.0019691,0.035254,0.49934,-1.4067,9.7922,1.0884,0,-0.0096967,-0.0096967,1072.8,83.082,0.086294,2.48E-04,14.576,55.597,-5.3833,0.0066272,144875,26.072,0.0013868,0.48282,0.097567,0.31433,0.048485,0.12001,1.9935,-10.729,-2.06E-04,0,0,0,0,-0.0025077,7.62,45.604,1.5704,-2.3562,2,15,1,1.29E-04,-1.29E-04,0,0.10779,0.20208
0.078565,0.037134,1.0617,14.502,1.0617,14.502,-4.78E-05,-4.78E-05,6.76E-05,-2.3562,0.0020045,0.035576,0.49934,-1.4067,9.7922,1.0827,0,-0.0098316,-0.0098316,1072.7,83.068,0.086242,2.48E-04,14.588,55.59,-5.3809,0.006647,145308,26.063,0.0014375,0.48259,0.10053,0.3141,0.048485,0.12001,1.9882,-10.695,-3.20E-04,0,0,0,0,-0.0025626,7.62,45.604,1.5704,-2.3562,2,15,1,1.32E-04,-1.32E-04,0,0.10823,0.20832
0.079565,0.038203,1.0762,14.494,1.0762,14.494,-4.92E-05,-4.92E-05,6.96E-05,-2.3562,0.0020403,0.035902,0.49934,-1.4067,9.7922,1.0771,0,-0.009967,-0.009967,1072.7,83.055,0.086191,2.48E-04,14.601,55.584,-5.3785,0.006667,145745,26.054,0.0014892,0.48236,0.10352,0.31387,0.048485,0.12001,1.9829,-10.662,-1.62E-04,0,0,0,0,-0.0026179,7.62,45.604,1.5704,-2.3562,2,15,1,1.36E-04,-1.36E-04,0,0.10868,0.21462
0.080565,0.039287,1.0907,14.485,1.0907,14.485,-5.07E-05,-5.07E-05,7.16E-05,-2.3562,0.0020763,0.036232,0.49934,-1.4067,9.7922,1.0715,0,-0.010103,-0.010103,1072.7,83.041,0.086141,2.48E-04,14.613,55.578,-5.376,0.0066872,146187,26.044,0.0015419,0.48213,0.10654,0.31363,0.048485,0.12001,1.9776,-10.628,-2.26E-04,0,0,0,0,-0.0026735,7.62,45.604,1.5704,-2.3562,2,15,1,1.39E-04,-1.39E-04,0,0.10913,0.22098
0.081565,0.040385,1.1052,14.477,1.1052,14.477,-5.21E-05,-5.21E-05,7.37E-05,-2.3562,0.0021127,0.036566,0.49934,-1.4067,9.7922,1.0659,0,-0.010239,-0.010239,1072.7,83.028,0.086092,2.48E-04,14.625,55.573,-5.3736,0.0067076,146633,26.035,0.0015956,0.48189,0.10958,0.3134,0.048485,0.12001,1.9722,-10.595,3.63E-04,0,0,0,0,-0.0027294,7.62,45.604,1.5704,-2.3562,2,15,1,1.43E-04,-1.43E-04,0,0.10959,0.22739
0.082565,0.041497,1.1197,14.469,1.1197,14.469,-5.36E-05,-5.36E-05,7.59E-05,-2.3562,0.0021495,0.036904,0.49934,-1.4067,9.7922,1.0604,0,-0.010376,-0.010376,1072.7,83.014,0.086044,2.48E-04,14.638,55.567,-5.3712,0.0067282,147083,26.026,0.0016502,0.48166,0.11264,0.31317,0.048485,0.12001,1.9668,-10.562,-3.20E-05,0,0,0,0,-0.0027857,7.62,45.604,1.5704,-2.3562,2,15,1,1.46E-04,-1.46E-04,0,0.11005,0.23386
0.083565,0.042624,1.1341,14.46,1.1341,14.46,-5.52E-05,-5.52E-05,7.80E-05,-2.3562,0.0021865,0.037246,0.49934,-1.4067,9.7922,1.0549,0,-0.010513,-0.010513,1072.7,83,0.085997,2.48E-04,14.651,55.561,-5.3688,0.006749,147537,26.017,0.0017058,0.48142,0.11572,0.31293,0.048485,0.12001,1.9614,-10.527,2.74E-04,0,0,0,0,-0.0028423,7.62,45.604,1.5704,-2.3562,2,15,1,1.50E-04,-1.50E-04,0,0.11052,0.24037
0.084565,0.043765,1.1486,14.452,1.1486,14.452,-5.67E-05,-5.67E-05,8.02E-05,-2.3562,0.002224,0.037593,0.49934,-1.4067,9.7922,1.0495,0,-0.010651,-0.010651,1072.7,82.987,0.08595,2.48E-04,14.663,55.555,-5.3664,0.00677,147996,26.007,0.0017625,0.48118,0.11882,0.31269,0.048485,0.12001,1.956,-10.494,3.57E-05,0,0,0,0,-0.0028992,7.62,45.604,1.5704,-2.3562,2,15,1,1.54E-04,-1.54E-04,0,0.111,0.24693
0.085565,0.044921,1.163,14.443,1.163,14.443,-5.83E-05,-5.83E-05,8.25E-05,-2.3562,0.0022617,0.037943,0.49934,-1.4067,9.7922,1.044,0,-0.010789,-0.010789,1072.6,82.973,0.085905,2.48E-04,14.676,55.55,-5.364,0.0067911,148459,25.998,0.00182,0.48094,0.12194,0.31245,0.048485,0.12001,1.9506,-10.46,1.72E-04,0,0,0,0,-0.0029565,7.62,45.604,1.5704,-2.3562,2,15,1,1.58E-04,-1.58E-04,0,0.11148,0.25354
0.086565,0.046091,1.1775,14.435,1.1775,14.435,-5.99E-05,-5.99E-05,8.48E-05,-2.3562,0.0022999,0.038297,0.49934,-1.4067,9.7922,1.0387,0,-0.010928,-0.010928,1072.6,82.96,0.08586,2.48E-04,14.689,55.544,-5.3616,0.0068125,148925,25.989,0.0018786,0.4807,0.12507,0.31221,0.048485,0.12001,1.9451,-10.426,-9.95E-05,0,0,0,0,-0.003014,7.62,45.604,1.5703,-2.3562,2,15,1,1.61E-04,-1.61E-04,0,0.11197,0.26019
0.087565,0.047276,1.1919,14.427,1.1919,14.427,-6.16E-05,-6.16E-05,8.71E-05,-2.3562,0.0023383,0.038656,0.49934,-1.4067,9.7922,1.0333,0,-0.011067,-0.011067,1072.6,82.946,0.085816,2.48E-04,14.702,55.539,-5.3592,0.006834,149396,25.98,0.0019381,0.48046,0.12822,0.31197,0.048485,0.12001,1.9397,-10.392,-1.39E-04,0,0,0,0,-0.0030718,7.62,45.604,1.5703,-2.3562,2,15,1,1.65E-04,-1.65E-04,0,0.11246,0.26688
0.088565,0.048475,1.2063,14.418,1.2063,14.418,-6.32E-05,-6.32E-05,8.94E-05,-2.3562,0.0023772,0.039019,0.49934,-1.4067,9.7922,1.028,0,-0.011207,-0.011207,1072.6,82.932,0.085773,2.48E-04,14.716,55.534,-5.3567,0.0068557,149871,25.97,0.0019986,0.48022,0.13139,0.31173,0.048485,0.12001,1.9342,-10.358,4.06E-04,0,0,0,0,-0.00313,7.62,45.604,1.5703,-2.3562,2,15,1,1.69E-04,-1.69E-04,0,0.11296,0.2736
0.089565,0.049689,1.2208,14.41,1.2208,14.41,-6.49E-05,-6.49E-05,9.18E-05,-2.3562,0.0024164,0.039385,0.49934,-1.4067,9.7922,1.0227,0,-0.011347,-0.011347,1072.6,82.919,0.085731,2.48E-04,14.729,55.529,-5.3543,0.0068776,150350,25.961,0.0020601,0.47998,0.13457,0.31149,0.048485,0.12001,1.9288,-10.324,-4.88E-04,0,0,0,0,-0.0031884,7.62,45.604,1.5703,-2.3562,2,15,1,1.73E-04,-1.73E-04,0,0.11347,0.28037
0.090565,0.050917,1.2352,14.402,1.2352,14.402,-6.67E-05,-6.67E-05,9.43E-05,-2.3562,0.0024559,0.039756,0.49934,-1.4067,9.7922,1.0175,0,-0.011488,-0.011488,1072.6,82.905,0.08569,2.48E-04,14.742,55.524,-5.3519,0.0068997,150832,25.952,0.0021225,0.47973,0.13776,0.31124,0.048485,0.12001,1.9233,-10.29,-2.32E-06,0,0,0,0,-0.0032471,7.62,45.604,1.5703,-2.3562,2,15,1,1.77E-04,-1.77E-04,0,0.11398,0.28716
0.091565,0.052159,1.2496,14.393,1.2496,14.393,-6.84E-05,-6.84E-05,9.67E-05,-2.3562,0.0024959,0.040131,0.49934,-1.4067,9.7922,1.0123,0,-0.011629,-0.011629,1072.6,82.892,0.085649,2.48E-04,14.756,55.519,-5.3495,0.0069219,151318,25.943,0.0021859,0.47949,0.14097,0.311,0.048485,0.12001,1.9178,-10.256,-1.35E-05,0,0,0,0,-0.0033061,7.62,45.604,1.5703,-2.3562,2,15,1,1.81E-04,-1.81E-04,0,0.1145,0.29399
0.092565,0.053416,1.264,14.385,1.264,14.385,-7.02E-05,-7.02E-05,9.93E-05,-2.3562,0.0025362,0.040509,0.49934,-1.4067,9.7922,1.0071,0,-0.011771,-0.011771,1072.6,82.878,0.08561,2.48E-04,14.769,55.514,-5.3471,0.0069444,151808,25.933,0.0022502,0.47924,0.14418,0.31075,0.048485,0.12001,1.9123,-10.222,-1.85E-04,0,0,0,0,-0.0033653,7.62,45.604,1.5703,-2.3562,2,15,1,1.85E-04,-1.85E-04,0,0.11503,0.30085
0.093565,0.054687,1.2783,14.376,1.2783,14.376,-7.20E-05,-7.20E-05,1.02E-04,-2.3562,0.0025769,0.040892,0.49934,-1.4067,9.7922,1.002,0,-0.011913,-0.011913,1072.5,82.864,0.085571,2.48E-04,14.783,55.509,-5.3446,0.0069669,152302,25.924,0.0023155,0.479,0.1474,0.31051,0.048485,0.12001,1.9068,-10.188,-1.81E-04,0,0,0,0,-0.0034248,7.62,45.604,1.5703,-2.3562,2,15,1,1.90E-04,-1.90E-04,0,0.11556,0.30773
0.094565,0.055972,1.2927,14.368,1.2927,14.368,-7.38E-05,-7.38E-05,1.04E-04,-2.3562,0.002618,0.041279,0.49934,-1.4067,9.7922,0.99693,0,-0.012056,-0.012056,1072.5,82.851,0.085533,2.48E-04,14.797,55.504,-5.3422,0.0069897,152800,25.915,0.0023817,0.47875,0.15063,0.31026,0.048485,0.12001,1.9013,-10.154,-3.06E-04,0,0,0,0,-0.0034846,7.62,45.604,1.5702,-2.3562,2,15,1,1.94E-04,-1.94E-04,0,0.11609,0.31464
0.095565,0.057272,1.3071,14.36,1.3071,14.36,-7.57E-05,-7.57E-05,1.07E-04,-2.3562,0.0026595,0.04167,0.49934,-1.4067,9.7922,0.99188,0,-0.012199,-0.012199,1072.5,82.837,0.085496,2.48E-04,14.811,55.5,-5.3398,0.0070126,153301,25.905,0.0024489,0.4785,0.15387,0.31001,0.048485,0.12001,1.8958,-10.12,3.66E-04,0,0,0,0,-0.0035447,7.62,45.604,1.5702,-2.3562,2,15,1,1.98E-04,-1.98E-04,0,0.11664,0.32157
0.096565,0.058587,1.3215,14.351,1.3215,14.351,-7.76E-05,-7.76E-05,1.10E-04,-2.3562,0.0027014,0.042066,0.49934,-1.4067,9.7922,0.98687,0,-0.012343,-0.012343,1072.5,82.824,0.08546,2.48E-04,14.824,55.495,-5.3374,0.0070357,153805,25.896,0.002517,0.47826,0.15712,0.30977,0.048485,0.12001,1.8903,-10.085,-4.24E-04,0,0,0,0,-0.0036049,7.62,45.604,1.5702,-2.3562,2,15,1,2.03E-04,-2.03E-04,0,0.11719,0.32852
0.097565,0.059915,1.3358,14.343,1.3358,14.343,-7.95E-05,-7.95E-05,1.12E-04,-2.3562,0.0027436,0.042465,0.49934,-1.4067,9.7922,0.98189,0,-0.012487,-0.012487,1072.5,82.81,0.085424,2.48E-04,14.839,55.491,-5.3349,0.007059,154314,25.887,0.0025861,0.47801,0.16037,0.30952,0.048485,0.12001,1.8848,-10.051,-3.95E-04,0,0,0,0,-0.0036655,7.62,45.604,1.5702,-2.3562,2,15,1,2.07E-04,-2.07E-04,0,0.11774,0.33549
0.098565,0.061258,1.3501,14.334,1.3501,14.334,-8.15E-05,-8.15E-05,1.15E-04,-2.3562,0.0027863,0.042868,0.49934,-1.4067,9.7922,0.97695,0,-0.012632,-0.012632,1072.5,82.796,0.08539,2.48E-04,14.853,55.487,-5.3325,0.0070824,154825,25.878,0.0026561,0.47776,0.16362,0.30927,0.048485,0.12001,1.8792,-10.018,-1.63E-04,0,0,0,0,-0.0037262,7.62,45.604,1.5702,-2.3562,2,15,1,2.11E-04,-2.11E-04,0,0.1183,0.34247
0.099565,0.062615,1.3645,14.326,1.3645,14.326,-8.35E-05,-8.35E-05,1.18E-04,-2.3562,0.0028294,0.043275,0.49934,-1.4067,9.7922,0.97204,0,-0.012777,-0.012777,1072.5,82.783,0.085356,2.48E-04,14.867,55.482,-5.3301,0.0071059,155340,25.868,0.0027271,0.47751,0.16688,0.30902,0.048485,0.12001,1.8737,-9.9838,1.06E-04,0,0,0,0,-0.0037873,7.62,45.604,1.5702,-2.3562,2,15,1,2.16E-04,-2.16E-04,0,0.11887,0.34948
0.10056,0.063987,1.3788,14.318,1.3788,14.318,-8.55E-05,-8.55E-05,1.21E-04,-2.3562,0.0028728,0.043687,0.49934,-1.4067,9.7922,0.96717,0,-0.012923,-0.012923,1072.4,82.769,0.085323,2.48E-04,14.881,55.478,-5.3277,0.0071297,155859,25.859,0.0027989,0.47726,0.17014,0.30877,0.048485,0.12001,1.8682,-9.9496,1.19E-05,0,0,0,0,-0.0038485,7.62,45.604,1.5702,-2.3562,2,15,1,2.20E-04,-2.20E-04,0,0.11944,0.35649
0.10156,0.065373,1.3931,14.309,1.3931,14.309,-8.75E-05,-8.75E-05,1.24E-04,-2.3562,0.0029167,0.044102,0.49934,-1.4067,9.7922,0.96233,0,-0.01307,-0.01307,1072.4,82.756,0.085291,2.48E-04,14.895,55.474,-5.3253,0.0071535,156381,25.85,0.0028717,0.47701,0.1734,0.30852,0.048485,0.12001,1.8627,-9.9158,-3.50E-04,0,0,0,0,-0.00391,7.62,45.604,1.5702,-2.3562,2,15,1,2.25E-04,-2.25E-04,0,0.12002,0.36351
0.10256,0.066773,1.4074,14.301,1.4074,14.301,-8.96E-05,-8.96E-05,1.27E-04,-2.3562,0.0029611,0.044522,0.49934,-1.4067,9.7922,0.95753,0,-0.013217,-0.013217,1072.4,82.742,0.08526,2.48E-04,14.91,55.47,-5.3229,0.0071776,156906,25.841,0.0029454,0.47676,0.17666,0.30826,0.048485,0.12001,1.8572,-9.8813,4.43E-04,0,0,0,0,-0.0039717,7.62,45.604,1.5701,-2.3562,2,15,1,2.30E-04,-2.30E-04,0,0.1206,0.37055
0.10356,0.068188,1.4217,14.292,1.4217,14.292,-9.17E-05,-9.17E-05,1.30E-04,-2.3562,0.0030058,0.044945,0.49934,-1.4067,9.7922,0.95277,0,-0.013364,-0.013364,1072.4,82.728,0.085229,2.48E-04,14.924,55.466,-5.3205,0.0072017,157435,25.831,0.00302,0.4765,0.17992,0.30801,0.048485,0.12001,1.8517,-9.8474,1.91E-05,0,0,0,0,-0.0040336,7.62,45.604,1.5701,-2.3562,2,15,1,2.34E-04,-2.34E-04,0,0.12119,0.37759
0.10456,0.069617,1.436,14.284,1.436,14.284,-9.39E-05,-9.39E-05,1.33E-04,-2.3562,0.003051,0.045373,0.49934,-1.4067,9.7922,0.94804,0,-0.013512,-0.013512,1072.4,82.715,0.085199,2.48E-04,14.939,55.463,-5.318,0.0072261,157966,25.822,0.0030956,0.47625,0.18318,0.30776,0.048485,0.12001,1.8462,-9.8141,3.29E-04,0,0,0,0,-0.0040958,7.62,45.604,1.5701,-2.3562,2,15,1,2.39E-04,-2.39E-04,0,0.12179,0.38464
0.10556,0.07106,1.4503,14.276,1.4503,14.276,-9.60E-05,-9.60E-05,1.36E-04,-2.3562,0.0030965,0.045805,0.49934,-1.4067,9.7922,0.94334,0,-0.013661,-0.013661,1072.4,82.701,0.085171,2.48E-04,14.954,55.459,-5.3156,0.0072505,158501,25.813,0.003172,0.476,0.18644,0.30751,0.048485,0.12001,1.8407,-9.78,4.39E-04,0,0,0,0,-0.0041582,7.62,45.604,1.5701,-2.3562,2,15,1,2.44E-04,-2.44E-04,0,0.12239,0.39169
0.10656,0.072517,1.4646,14.267,1.4646,14.267,-9.82E-05,-9.82E-05,1.39E-04,-2.3562,0.0031426,0.046241,0.49934,-1.4067,9.7922,0.93868,0,-0.01381,-0.01381,1072.4,82.688,0.085143,2.48E-04,14.968,55.455,-5.3132,0.0072752,159039,25.804,0.0032494,0.47575,0.1897,0.30726,0.048485,0.12001,1.8352,-9.7464,-3.08E-04,0,0,0,0,-0.0042207,7.62,45.604,1.5701,-2.3562,2,15,1,2.49E-04,-2.49E-04,0,0.123,0.39874
0.10756,0.073989,1.4789,14.259,1.4789,14.259,-1.00E-04,-1.00E-04,1.42E-04,-2.3562,0.003189,0.046681,0.49934,-1.4067,9.7922,0.93405,0,-0.01396,-0.01396,1072.3,82.674,0.085115,2.48E-04,14.983,55.452,-5.3108,0.0072999,159581,25.794,0.0033276,0.47549,0.19295,0.307,0.048485,0.12001,1.8297,-9.7129,1.86E-04,0,0,0,0,-0.0042835,7.62,45.604,1.5701,-2.3562,2,15,1,2.54E-04,-2.54E-04,0,0.12362,0.40579
0.10856,0.075475,1.4931,14.25,1.4931,14.25,-1.03E-04,-1.03E-04,1.45E-04,-2.3562,0.0032359,0.047125,0.49934,-1.4067,9.7922,0.92946,0,-0.01411,-0.01411,1072.3,82.66,0.085089,2.48E-04,14.998,55.448,-5.3084,0.0073248,160125,25.785,0.0034068,0.47524,0.1962,0.30675,0.048485,0.12001,1.8242,-9.6792,-2.53E-04,0,0,0,0,-0.0043465,7.62,45.604,1.5701,-2.3562,2,15,1,2.59E-04,-2.59E-04,0,0.12424,0.41284
0.10956,0.076975,1.5074,14.242,1.5074,14.242,-1.05E-04,-1.05E-04,1.49E-04,-2.3562,0.0032833,0.047573,0.49934,-1.4067,9.7922,0.9249,0,-0.014261,-0.014261,1072.3,82.647,0.085063,2.48E-04,15.013,55.445,-5.306,0.0073498,160672,25.776,0.0034868,0.47499,0.19944,0.3065,0.048485,0.12001,1.8187,-9.6457,-1.48E-04,0,0,0,0,-0.0044097,7.62,45.604,1.5701,-2.3562,2,14.999,1,2.64E-04,-2.64E-04,0,0.12486,0.41989
0.11056,0.07849,1.5216,14.234,1.5216,14.234,-1.07E-04,-1.07E-04,1.52E-04,-2.3562,0.0033311,0.048025,0.49934,-1.4067,9.7922,0.92037,0,-0.014412,-0.014412,1072.3,82.633,0.085038,2.48E-04,15.028,55.442,-5.3036,0.007375,161223,25.767,0.0035677,0.47473,0.20268,0.30624,0.048485,0.12001,1.8133,-9.6124,1.86E-04,0,0,0,0,-0.0044731,7.62,45.604,1.57,-2.3562,2,14.999,1,2.69E-04,-2.69E-04,0,0.1255,0.42694
0.11156,0.080019,1.5358,14.225,1.5358,14.225,-1.10E-04,-1.10E-04,1.55E-04,-2.3562,0.0033794,0.048482,0.49934,-1.4067,9.7922,0.91588,0,-0.014564,-0.014564,1072.3,82.62,0.085014,2.48E-04,15.043,55.439,-5.3012,0.0074003,161776,25.757,0.0036495,0.47448,0.20591,0.30599,0.048485,0.12001,1.8078,-9.5796,-2.30E-04,0,0,0,0,-0.0045367,7.62,45.604,1.57,-2.3562,2,14.999,1,2.74E-04,-2.74E-04,0,0.12613,0.43397
0.11256,0.081562,1.5501,14.217,1.5501,14.217,-1.12E-04,-1.12E-04,1.59E-04,-2.3562,0.0034281,0.048942,0.49934,-1.4067,9.7922,0.91142,0,-0.014716,-0.014716,1072.3,82.606,0.084991,2.48E-04,15.059,55.436,-5.2989,0.0074258,162332,25.748,0.0037322,0.47423,0.20914,0.30573,0.048485,0.12001,1.8024,-9.5458,-1.29E-04,0,0,0,0,-0.0046005,7.62,45.604,1.57,-2.3562,2,14.999,1,2.79E-04,-2.79E-04,0,0.12678,0.44101
0.11356,0.083119,1.5643,14.208,1.5643,14.208,-1.15E-04,-1.15E-04,1.62E-04,-2.3562,0.0034772,0.049407,0.49934,-1.4067,9.7922,0.907,0,-0.014869,-0.014869,1072.3,82.592,0.084968,2.48E-04,15.074,55.433,-5.2965,0.0074513,162891,25.739,0.0038157,0.47397,0.21235,0.30548,0.048485,0.12001,1.7969,-9.5122,1.02E-04,0,0,0,0,-0.0046645,7.62,45.604,1.57,-2.3562,2,14.999,1,2.84E-04,-2.84E-04,0,0.12743,0.44803
0.11456,0.08469,1.5785,14.2,1.5785,14.2,-1.17E-04,-1.17E-04,1.66E-04,-2.3562,0.0035269,0.049875,0.49934,-1.4067,9.7922,0.90261,0,-0.015023,-0.015023,1072.3,82.579,0.084947,2.48E-04,15.089,55.43,-5.2941,0.007477,163453,25.73,0.0039001,0.47372,0.21556,0.30522,0.048485,0.12001,1.7915,-9.4795,4.40E-04,0,0,0,0,-0.0047287,7.62,45.604,1.57,-2.3562,2,14.999,1,2.90E-04,-2.90E-04,0,0.12808,0.45504
0.11556,0.086276,1.5927,14.192,1.5927,14.192,-1.20E-04,-1.20E-04,1.69E-04,-2.3562,0.003577,0.050348,0.49934,-1.4067,9.7922,0.89825,0,-0.015177,-0.015177,1072.2,82.565,0.084926,2.48E-04,15.104,55.427,-5.2917,0.0075029,164017,25.72,0.0039854,0.47346,0.21876,0.30497,0.048485,0.12001,1.7861,-9.4462,8.01E-05,0,0,0,0,-0.004793,7.62,45.604,1.57,-2.3562,2,14.999,1,2.95E-04,-2.95E-04,0,0.12875,0.46204
0.11656,0.087875,1.6069,14.183,1.6069,14.183,-1.22E-04,-1.22E-04,1.73E-04,-2.3562,0.0036276,0.050825,0.49934,-1.4067,9.7922,0.89392,0,-0.015332,-0.015332,1072.2,82.552,0.084906,2.48E-04,15.12,55.425,-5.2893,0.0075288,164585,25.711,0.0040715,0.47321,0.22195,0.30472,0.048485,0.12001,1.7807,-9.4138,3.19E-04,0,0,0,0,-0.0048576,7.62,45.604,1.5699,-2.3562,2,14.999,1,3.00E-04,-3.00E-04,0,0.12941,0.46903
0.11756,0.089489,1.6211,14.175,1.6211,14.175,-1.25E-04,-1.25E-04,1.76E-04,-2.3562,0.0036787,0.051306,0.49934,-1.4067,9.7922,0.88963,0,-0.015487,-0.015487,1072.2,82.538,0.084886,2.48E-04,15.135,55.422,-5.287,0.0075549,165155,25.702,0.0041585,0.47295,0.22513,0.30446,0.048485,0.12001,1.7753,-9.3813,-7.96E-05,0,0,0,0,-0.0049223,7.62,45.604,1.5699,-2.3562,2,14.999,1,3.06E-04,-3.06E-04,0,0.13009,0.476
0.11856,0.091118,1.6352,14.166,1.6352,14.166,-1.27E-04,-1.27E-04,1.80E-04,-2.3562,0.0037302,0.051791,0.49934,-1.4067,9.7922,0.88537,0,-0.015643,-0.015643,1072.2,82.524,0.084868,2.48E-04,15.151,55.42,-5.2846,0.0075811,165728,25.693,0.0042463,0.4727,0.2283,0.30421,0.048485,0.12001,1.7699,-9.3483,-3.56E-04,0,0,0,0,-0.0049872,7.62,45.604,1.5699,-2.3562,2,14.999,1,3.11E-04,-3.11E-04,0,0.13077,0.48296
0.11956,0.09276,1.6494,14.158,1.6494,14.158,-1.30E-04,-1.30E-04,1.84E-04,-2.3562,0.0037823,0.052281,0.49934,-1.4067,9.7922,0.88114,0,-0.015799,-0.015799,1072.2,82.511,0.08485,2.48E-04,15.166,55.417,-5.2823,0.0076074,166303,25.683,0.004335,0.47245,0.23145,0.30395,0.048485,0.12001,1.7645,-9.3152,-1.17E-04,0,0,0,0,-0.0050523,7.62,45.604,1.5699,-2.3562,2,14.999,1,3.17E-04,-3.17E-04,0,0.13145,0.4899
0.12056,0.094416,1.6636,14.15,1.6636,14.15,-1.33E-04,-1.33E-04,1.88E-04,-2.3562,0.0038348,0.052774,0.49934,-1.4067,9.7922,0.87694,0,-0.015956,-0.015956,1072.2,82.497,0.084833,2.48E-04,15.182,55.415,-5.2799,0.0076339,166881,25.674,0.0044245,0.47219,0.2346,0.3037,0.048485,0.12001,1.7591,-9.2833,-4.01E-04,0,0,0,0,-0.0051175,7.62,45.604,1.5699,-2.3562,2,14.999,1,3.22E-04,-3.22E-04,0,0.13214,0.49683
0.12156,0.096087,1.6777,14.141,1.6777,14.141,-1.35E-04,-1.35E-04,1.92E-04,-2.3562,0.0038878,0.053271,0.49934,-1.4067,9.7922,0.87278,0,-0.016114,-0.016114,1072.2,82.484,0.084817,2.48E-04,15.198,55.413,-5.2776,0.0076604,167462,25.665,0.0045148,0.47194,0.23773,0.30344,0.048485,0.12001,1.7538,-9.2502,1.76E-06,0,0,0,0,-0.005183,7.62,45.604,1.5699,-2.3562,2,14.999,1,3.28E-04,-3.28E-04,0,0.13284,0.50373
0.12256,0.097772,1.6919,14.133,1.6919,14.133,-1.38E-04,-1.38E-04,1.95E-04,-2.3562,0.0039413,0.053773,0.49934,-1.4067,9.7922,0.86864,0,-0.016272,-0.016272,1072.1,82.47,0.084802,2.48E-04,15.214,55.411,-5.2752,0.0076871,168045,25.656,0.004606,0.47168,0.24085,0.30319,0.048485,0.12001,1.7485,-9.218,-3.43E-04,0,0,0,0,-0.0052486,7.62,45.604,1.5699,-2.3562,2,14.999,1,3.34E-04,-3.34E-04,0,0.13354,0.51062
0.12356,0.099471,1.706,14.124,1.706,14.124,-1.41E-04,-1.41E-04,1.99E-04,-2.3562,0.0039954,0.054279,0.49934,-1.4067,9.7922,0.86454,0,-0.016431,-0.016431,1072.1,82.456,0.084787,2.48E-04,15.229,55.409,-5.2729,0.0077139,168630,25.646,0.004698,0.47143,0.24396,0.30294,0.048485,0.12001,1.7432,-9.1859,-3.04E-05,0,0,0,0,-0.0053143,7.62,45.604,1.5698,-2.3562,2,14.999,1,3.40E-04,-3.40E-04,0,0.13425,0.51748
0.12456,0.10118,1.7201,14.116,1.7201,14.116,-1.44E-04,-1.44E-04,2.03E-04,-2.3562,0.0040499,0.054789,0.49934,-1.4067,9.7922,0.86047,0,-0.01659,-0.01659,1072.1,82.443,0.084773,2.48E-04,15.245,55.407,-5.2705,0.0077408,169219,25.637,0.0047908,0.47117,0.24705,0.30268,0.048485,0.12001,1.7379,-9.1542,2.34E-04,0,0,0,0,-0.0053803,7.62,45.604,1.5698,-2.3562,2,14.999,1,3.45E-04,-3.45E-04,0,0.13497,0.52432
0.12556,0.10291,1.7342,14.107,1.7342,14.108,-1.47E-04,-1.47E-04,2.08E-04,-2.3562,0.004105,0.055303,0.49934,-1.4067,9.7922,0.85643,0,-0.01675,-0.01675,1072.1,82.429,0.08476,2.48E-04,15.261,55.405,-5.2682,0.0077678,169809,25.628,0.0048844,0.47092,0.25013,0.30243,0.048485,0.12001,1.7326,-9.1217,-3.13E-04,0,0,0,0,-0.0054464,7.62,45.604,1.5698,-2.3562,2,14.999,1,3.51E-04,-3.51E-04,0,0.13569,0.53114
0.12656,0.10465,1.7483,14.099,1.7483,14.099,-1.50E-04,-1.50E-04,2.12E-04,-2.3562,0.0041605,0.055821,0.49934,-1.4067,9.7922,0.85242,0,-0.01691,-0.01691,1072.1,82.416,0.084748,2.48E-04,15.277,55.403,-5.2659,0.0077949,170402,25.618,0.0049788,0.47067,0.25319,0.30217,0.048485,0.12001,1.7273,-9.0904,2.58E-04,0,0,0,0,-0.0055126,7.62,45.604,1.5698,-2.3562,2,14.999,1,3.57E-04,-3.57E-04,0,0.13642,0.53794
0.12756,0.10641,1.7624,14.091,1.7624,14.091,-1.53E-04,-1.53E-04,2.16E-04,-2.3562,0.0042166,0.056344,0.49934,-1.4067,9.7922,0.84844,0,-0.017071,-0.017071,1072.1,82.402,0.084736,2.48E-04,15.293,55.402,-5.2636,0.0078222,170997,25.609,0.005074,0.47041,0.25624,0.30192,0.048485,0.12001,1.722,-9.0587,-3.41E-05,0,0,0,0,-0.0055791,7.62,45.604,1.5698,-2.3562,2,14.999,1,3.63E-04,-3.63E-04,0,0.13715,0.54471
0.12856,0.10818,1.7765,14.082,1.7765,14.082,-1.56E-04,-1.56E-04,2.20E-04,-2.3562,0.0042732,0.05687,0.49934,-1.4067,9.7922,0.84449,0,-0.017233,-0.017233,1072.1,82.388,0.084726,2.48E-04,15.309,55.4,-5.2612,0.0078495,171595,25.6,0.00517,0.47016,0.25927,0.30167,0.048485,0.12001,1.7168,-9.0271,1.37E-04,0,0,0,0,-0.0056456,7.62,45.604,1.5698,-2.3562,2,14.999,1,3.69E-04,-3.69E-04,0,0.13789,0.55145
0.12956,0.10996,1.7906,14.074,1.7906,14.074,-1.59E-04,-1.59E-04,2.24E-04,-2.3562,0.0043304,0.057401,0.49934,-1.4067,9.7922,0.84057,0,-0.017395,-0.017395,1072,82.375,0.084716,2.48E-04,15.326,55.399,-5.2589,0.007877,172195,25.591,0.0052668,0.46991,0.26229,0.30142,0.048485,0.12001,1.7116,-8.9951,-9.79E-05,0,0,0,0,-0.0057124,7.62,45.604,1.5697,-2.3562,2,14.999,1,3.75E-04,-3.75E-04,0,0.13863,0.55817
0.13056,0.11176,1.8047,14.065,1.8047,14.065,-1.62E-04,-1.62E-04,2.29E-04,-2.3562,0.004388,0.057936,0.49934,-1.4067,9.7922,0.83668,0,-0.017558,-0.017558,1072,82.361,0.084706,2.48E-04,15.342,55.397,-5.2566,0.0079045,172797,25.581,0.0053644,0.46966,0.26529,0.30116,0.048485,0.12001,1.7064,-8.9645,-3.49E-04,0,0,0,0,-0.0057793,7.62,45.604,1.5697,-2.3562,2,14.999,1,3.82E-04,-3.82E-04,0,0.13938,0.56486
0.13156,0.11357,1.8187,14.057,1.8188,14.057,-1.65E-04,-1.65E-04,2.33E-04,-2.3562,0.0044462,0.058475,0.49934,-1.4067,9.7922,0.83282,0,-0.017721,-0.017721,1072,82.348,0.084698,2.48E-04,15.358,55.396,-5.2543,0.0079322,173401,25.572,0.0054628,0.4694,0.26827,0.30091,0.048485,0.12001,1.7012,-8.9332,3.98E-04,0,0,0,0,-0.0058464,7.62,45.604,1.5697,-2.3562,2,14.999,1,3.88E-04,-3.88E-04,0,0.14014,0.57152
0.13256,0.1154,1.8328,14.048,1.8328,14.049,-1.68E-04,-1.68E-04,2.38E-04,-2.3562,0.004505,0.059018,0.49934,-1.4067,9.7922,0.82898,0,-0.017885,-0.017885,1072,82.334,0.08469,2.48E-04,15.374,55.395,-5.2521,0.0079599,174008,25.563,0.0055619,0.46915,0.27124,0.30066,0.048485,0.12001,1.696,-8.902,2.39E-04,0,0,0,0,-0.0059136,7.62,45.604,1.5697,-2.3562,2,14.999,1,3.94E-04,-3.94E-04,0,0.1409,0.57816
0.13356,0.11724,1.8469,14.04,1.8469,14.04,-1.71E-04,-1.71E-04,2.42E-04,-2.3562,0.0045643,0.059565,0.49934,-1.4067,9.7922,0.82518,0,-0.01805,-0.01805,1072,82.32,0.084684,2.48E-04,15.391,55.394,-5.2498,0.0079878,174617,25.554,0.0056618,0.4689,0.27419,0.30041,0.048485,0.12001,1.6909,-8.8704,3.51E-04,0,0,0,0,-0.005981,7.62,45.604,1.5697,-2.3562,2,14.999,1,4.00E-04,-4.00E-04,0,0.14167,0.58476
0.13456,0.11909,1.8609,14.032,1.8609,14.032,-1.74E-04,-1.74E-04,2.47E-04,-2.3562,0.0046241,0.060117,0.49934,-1.4067,9.7922,0.82141,0,-0.018215,-0.018215,1072,82.307,0.084677,2.48E-04,15.407,55.393,-5.2475,0.0080157,175228,25.544,0.0057625,0.46865,0.27713,0.30015,0.048485,0.12001,1.6858,-8.8398,2.13E-04,0,0,0,0,-0.0060485,7.62,45.604,1.5696,-2.3562,2,14.999,1,4.07E-04,-4.07E-04,0,0.14245,0.59133
0.13556,0.12096,1.8749,14.023,1.8749,14.023,-1.78E-04,-1.78E-04,2.51E-04,-2.3562,0.0046845,0.060673,0.49934,-1.4067,9.7922,0.81766,0,-0.01838,-0.01838,1072,82.293,0.084672,2.48E-04,15.423,55.392,-5.2452,0.0080437,175841,25.535,0.0058639,0.4684,0.28004,0.2999,0.048485,0.12001,1.6806,-8.8087,4.01E-06,0,0,0,0,-0.0061162,7.62,45.604,1.5696,-2.3562,2,14.999,1,4.13E-04,-4.13E-04,0,0.14323,0.59787
0.13656,0.12284,1.8889,14.015,1.889,14.015,-1.81E-04,-1.81E-04,2.56E-04,-2.3562,0.0047455,0.061233,0.49934,-1.4067,9.7922,0.81395,0,-0.018547,-0.018547,1072,82.28,0.084668,2.48E-04,15.44,55.391,-5.243,0.0080719,176456,25.526,0.0059661,0.46815,0.28294,0.29965,0.048485,0.12001,1.6755,-8.7786,3.64E-04,0,0,0,0,-0.006184,7.62,45.604,1.5696,-2.3562,2,14.999,1,4.20E-04,-4.20E-04,0,0.14401,0.60438
0.13756,0.12474,1.903,14.006,1.903,14.006,-1.84E-04,-1.84E-04,2.61E-04,-2.3562,0.004807,0.061797,0.49934,-1.4067,9.7922,0.81026,0,-0.018714,-0.018714,1071.9,82.266,0.084664,2.48E-04,15.456,55.39,-5.2407,0.0081001,177073,25.517,0.0060691,0.4679,0.28582,0.2994,0.048485,0.12001,1.6705,-8.7486,-5.06E-05,0,0,0,0,-0.006252,7.62,45.604,1.5696,-2.3562,2,14.999,1,4.26E-04,-4.26E-04,0,0.14481,0.61086
0.13856,0.12665,1.917,13.998,1.917,13.998,-1.88E-04,-1.88E-04,2.66E-04,-2.3562,0.0048691,0.062365,0.49934,-1.4067,9.7922,0.8066,0,-0.018881,-0.018881,1071.9,82.252,0.084661,2.48E-04,15.473,55.39,-5.2385,0.0081284,177692,25.507,0.0061728,0.46765,0.28868,0.29915,0.048485,0.12001,1.6654,-8.718,4.95E-04,0,0,0,0,-0.0063201,7.62,45.604,1.5696,-2.3562,2,14.999,1,4.33E-04,-4.33E-04,0,0.1456,0.6173
0.13956,0.12857,1.931,13.989,1.931,13.99,-1.91E-04,-1.91E-04,2.71E-04,-2.3562,0.0049318,0.062938,0.49934,-1.4067,9.7922,0.80297,0,-0.019049,-0.019049,1071.9,82.239,0.084658,2.48E-04,15.489,55.389,-5.2362,0.0081568,178313,25.498,0.0062772,0.4674,0.29152,0.2989,0.048485,0.12001,1.6604,-8.6872,3.00E-04,0,0,0,0,-0.0063884,7.62,45.604,1.5696,-2.3562,2,14.999,1,4.40E-04,-4.40E-04,0,0.14641,0.62371
0.14056,0.13051,1.945,13.981,1.945,13.981,-1.95E-04,-1.95E-04,2.76E-04,-2.3562,0.004995,0.063515,0.49934,-1.4067,9.7922,0.79936,0,-0.019218,-0.019218,1071.9,82.225,0.084657,2.48E-04,15.506,55.389,-5.234,0.0081853,178936,25.489,0.0063823,0.46715,0.29434,0.29865,0.048485,0.12001,1.6554,-8.6574,3.52E-04,0,0,0,0,-0.0064569,7.62,45.604,1.5695,-2.3562,2,14.999,1,4.47E-04,-4.47E-04,0,0.14722,0.63009
0.14156,0.13246,1.9589,13.973,1.9589,13.973,-1.98E-04,-1.98E-04,2.81E-04,-2.3562,0.0050588,0.064096,0.49934,-1.4067,9.7922,0.79579,0,-0.019387,-0.019387,1071.9,82.212,0.084656,2.48E-04,15.523,55.389,-5.2318,0.0082139,179561,25.48,0.0064882,0.4669,0.29715,0.2984,0.048485,0.12001,1.6504,-8.6273,-4.85E-04,0,0,0,0,-0.0065254,7.62,45.604,1.5695,-2.3562,2,14.999,1,4.53E-04,-4.53E-04,0,0.14804,0.63643
0.14256,0.13443,1.9729,13.964,1.9729,13.964,-2.02E-04,-2.02E-04,2.86E-04,-2.3562,0.0051232,0.064681,0.49934,-1.4067,9.7922,0.79224,0,-0.019557,-0.019557,1071.9,82.198,0.084656,2.48E-04,15.539,55.388,-5.2296,0.0082426,180188,25.47,0.0065949,0.46665,0.29993,0.29816,0.048485,0.12001,1.6454,-8.5977,4.74E-04,0,0,0,0,-0.0065942,7.62,45.604,1.5695,-2.3562,2,14.999,1,4.60E-04,-4.60E-04,0,0.14886,0.64274
