Time,Altitude (m),Vertical velocity (m/s),Vertical acceleration (m/s²),Total velocity (m/s),Total acceleration (m/s²),Position East of launch (m),Position North of launch (m),Lateral distance (m),Lateral direction (rad),Lateral velocity (m/s),Lateral acceleration (m/s²),Latitude (rad),Longitude (rad),Gravitational acceleration (m/s²),Angle of attack (rad),Roll rate (rad/s),Pitch rate (rad/s),Yaw rate (rad/s),Mass (kg),Propellant mass (kg),Longitudinal moment of inertia (kg·m²),Rotational moment of inertia (kg·m²),CP location (m),CG location (m),Stability margin calibers (?),Mach number (?),Reynolds number (?),Thrust (N),Drag force (N),Drag coefficient (?),Axial drag coefficient (?),Friction drag coefficient (?),Pressure drag coefficient (?),Base drag coefficient (?),Normal force coefficient (?),Pitch moment coefficient (?),Yaw moment coefficient (?),Side force coefficient (?),Roll moment coefficient (?),Roll forcing coefficient (?),Roll damping coefficient (?),Pitch damping coefficient (?),Reference length (m),Reference area (cm²),Vertical orientation (zenith) (rad),Lateral orientation (azimuth) (rad),Wind velocity (m/s),Air temperature (°C),Air pressure (mbar),Speed of sound (m/s),Simulation time step (s),Computation time (s)
0,0,0,-9.78715435,0,9.78715435,0,0,0,0,0,0,0.372075543,-2.756281212,9.787154704,1.570796327,0,0,0,1.09267399,0.103,0.088701716,2.50E-04,NaN,0.562361109,NaN,0.005875632,128445.8848,3.87E-07,0,0.49231225,0,0.323823004,0.048484757,0.120004488,NaN,NaN,NaN,NaN,NaN,NaN,NaN,NaN,0.0762,45.60367312,1.570796327,0,2,15,1013.25,340.3889,1.50E-08,0.0019032
1.50E-08,0,0,-9.787153465,0,9.787179839,0,0,0,0,0,0.022721467,0.372075543,-2.756281212,9.787154704,1.570796327,0,0,0,1.09267399,0.103,0.088701716,2.50E-04,0.141120469,0.562361109,-5.528092392,0.005875632,128445.8848,1.35E-06,0,0.49231225,0,0.323823004,0.048484757,0.120004488,2.222087998,-12.28369135,1.01E-05,0,0,0,0,0,0.0762,45.60367312,1.570796327,0,2,15,1013.25,340.3889,2.25E-08,0.0029901
3.75E-08,0,0,-9.787152136,0,9.787178511,0,0,0,0,0,0.022721467,0.372075543,-2.756281212,9.787154704,1.570796327,0,0,0,1.09267399,0.103,0.088701716,2.50E-04,0.141120469,0.562361109,-5.528092392,0.005875632,128445.8848,2.81E-06,0,0.49231225,0,0.323823004,0.048484757,0.120004488,2.222087998,-12.28421416,-7.02E-05,0,0,0,0,0,0.0762,45.60367312,1.570796327,0,2,15,1013.25,340.3889,3.38E-08,0.0036736
7.13E-08,0,0,-9.787150144,0,9.787176518,0,0,0,0,0,0.022721467,0.372075543,-2.756281212,9.787154704,1.570796327,0,-6.63E-09,0,1.09267399,0.103,0.088701716,2.50E-04,0.141120469,0.562361109,-5.528092392,0.005875632,128445.8848,4.98E-06,0,0.49231225,0,0.323823004,0.048484757,0.120004488,2.222087998,-12.28366585,-1.70E-04,0,0,0,0,-1.49E-15,0.0762,45.60367312,1.570796327,0,2,15,1013.25,340.3889,5.06E-08,0.0044037
1.22E-07,0,0,-9.787147155,0,9.787173529,0,0,0,0,0,0.022721467,0.372075543,-2.756281212,9.787154704,1.570796327,0,-1.26E-08,0,1.09267399,0.103,0.088701716,2.50E-04,0.141120469,0.562361109,-5.528092392,0.005875632,128445.8848,8.25E-06,0,0.49231225,0,0.323823004,0.048484757,0.120004488,2.222087998,-12.28345947,3.44E-04,0,0,0,0,-5.39E-15,0.0762,45.60367312,1.570796327,0,2,15,1013.25,340.3889,7.59E-08,0.0054591
1.98E-07,0,0,-9.787142672,0,9.787169046,0,0,0,0,0,0.022721467,0.372075543,-2.756281212,9.787154704,1.570796327,0,-2.16E-08,0,1.09267399,0.103,0.088701716,2.50E-04,0.141120469,0.562361109,-5.528092392,0.005875632,128445.8848,1.31E-05,0,0.49231225,0,0.323823004,0.048484757,0.120004488,2.222087998,-12.28424758,-4.87E-04,0,0,0,0,-1.58E-14,0.0762,45.60367312,1.570796327,0,2,15,1013.25,340.3889,1.14E-07,0.0063188
3.12E-07,0,0,-9.787135947,0,9.787162321,0,0,0,0,0,0.022721467,0.372075543,-2.756281212,9.787154704,1.570796327,0,-3.50E-08,0,1.09267399,0.103,0.088701716,2.50E-04,0.141120469,0.562361109,-5.528092392,0.005875632,128445.8848,2.05E-05,0,0.49231225,0,0.323823004,0.048484757,0.120004488,2.222087998,-12.28381031,-4.76E-04,0,0,0,0,-4.15E-14,0.0762,45.60367312,1.570796327,0,2,15,1013.25,340.3889,1.71E-07,0.0071075
4.83E-07,0,0,-9.787125859,0,9.787152234,0,0,0,0,0,0.022721467,0.372075543,-2.756281212,9.787154704,1.570796327,0,-5.51E-08,0,1.09267399,0.103,0.088701716,2.50E-04,0.141120469,0.562361109,-5.528092392,0.005875632,128445.8848,3.15E-05,0,0.49231225,0,0.323823004,0.048484757,0.120004488,2.222087998,-12.28344012,3.65E-04,0,0,0,0,-1.03E-13,0.0762,45.60367312,1.570796327,0,2,15,1013.25,340.3889,2.56E-07,0.0080313
7.39E-07,0,0,-9.787110728,0,9.787137103,0,0,0,0,0,0.022721467,0.372075543,-2.756281212,9.787154704,1.570796327,0,-8.53E-08,0,1.09267399,0.103,0.088701716,2.50E-04,0.141120469,0.562361109,-5.528092392,0.005875632,128445.8848,4.81E-05,0,0.49231225,0,0.323823004,0.048484757,0.120004488,2.222087998,-12.28346454,4.27E-04,0,0,0,0,-2.47E-13,0.0762,45.60367312,1.570796327,0,2,15,1013.25,340.3889,3.84E-07,0.008965
1.12E-06,0,0,-9.787088032,0,9.787114407,0,0,0,0,0,0.022721467,0.372075543,-2.756281212,9.787154704,1.570796327,0,-1.31E-07,0,1.09267399,0.103,0.088701716,2.50E-04,0.141120469,0.562361109,-5.528092392,0.005875632,128445.8848,7.29E-05,0,0.49231225,0,0.323823004,0.048484757,0.120004488,2.222087998,-12.28432884,3.95E-04,0,0,0,0,-5.79E-13,0.0762,45.60367312,1.570796327,0,2,15,1013.25,340.3889,5.77E-07,0.009613
1.70E-06,0,0,-9.787053987,0,9.787080362,0,0,0,0,0,0.022721467,0.372075543,-2.756281212,9.787154704,1.570796327,0,-1.99E-07,0,1.09267399,0.103,0.088701716,2.50E-04,0.141120469,0.562361109,-5.528092392,0.005875632,128445.8848,1.10E-04,0,0.49231225,0,0.323823004,0.048484757,0.120004488,2.222087998,-12.28420849,-1.25E-04,0,0,0,0,-1.34E-12,0.0762,45.60367312,1.570796327,0,2,15,1013.25,340.3889,8.65E-07,0.0103253
2.56E-06,0,0,-9.78700292,0,9.787029295,0,0,0,0,0,0.022721467,0.372075543,-2.756281212,9.787154704,1.570796327,0,-3.01E-07,0,1.09267399,0.103,0.088701716,2.50E-04,0.141120469,0.562361109,-5.528092392,0.005875632,128445.8848,1.66E-04,0,0.49231225,0,0.323823004,0.048484757,0.120004488,2.222087998,-12.28359765,-4.31E-04,0,0,0,0,-3.07E-12,0.0762,45.60367312,1.570796327,0,2,15,1013.25,340.3889,1.30E-06,0.0108691
3.86E-06,0,0,-9.786926319,0,9.786952695,0,0,0,0,0,0.022721467,0.372075543,-2.756281212,9.787154704,1.570796327,0,-4.54E-07,0,1.09267399,0.103,0.088701716,2.50E-04,0.141120469,0.562361109,-5.528092392,0.005875632,128445.8848,2.50E-04,0,0.49231225,0,0.323823004,0.048484757,0.120004488,2.222087998,-12.28368638,-4.02E-05,0,0,0,0,-6.98E-12,0.0762,45.60367312,1.570796327,0,2,15,1013.25,340.3889,1.95E-06,0.0115223
5.81E-06,0,0,-9.786811418,0,9.786837794,0,0,0,0,0,0.022721467,0.372075543,-2.756281212,9.787154704,1.570796327,0,-6.83E-07,0,1.09267399,0.103,0.088701716,2.50E-04,0.141120469,0.562361109,-5.528092392,0.005875632,128445.8848,3.75E-04,0,0.49231225,0,0.323823004,0.048484757,0.120004488,2.222087998,-12.28410137,-5.02E-05,0,0,0,0,-1.58E-11,0.0762,45.60367312,1.570796327,0,2,15,1013.25,340.3889,2.92E-06,0.0120547
8.73E-06,0,0,-9.786639067,0,9.786665443,0,0,0,0,0,0.022721467,0.372075543,-2.756281212,9.787154704,1.570796327,0,-1.03E-06,0,1.09267399,0.103,0.088701716,2.50E-04,0.141120469,0.562361109,-5.528092392,0.005875632,128445.8848,5.63E-04,0,0.49231225,0,0.323823004,0.048484757,0.120004488,2.222087998,-12.2835474,-4.71E-04,0,0,0,0,-3.58E-11,0.0762,45.60367312,1.570796327,0,2,15,1013.25,340.3889,4.38E-06,0.0126055
1.31E-05,0,0,-9.78638054,0,9.786406916,0,0,0,0,0,0.022721467,0.372075543,-2.756281212,9.787154704,1.570796327,0,-1.54E-06,0,1.09267399,0.103,0.088701716,2.50E-04,0.141120469,0.562361109,-5.528092392,0.005875632,128445.8848,8.46E-04,0,0.49231225,0,0.323823004,0.048484757,0.120004488,2.222087998,-12.28389925,-2.36E-04,0,0,0,0,-8.08E-11,0.0762,45.60367312,1.570796327,0,2,15,1013.25,340.3889,6.57E-06,0.0131477
1.97E-05,0,0,-9.785992749,0,9.786019127,0,0,0,0,0,0.022721469,0.372075543,-2.756281212,9.787154704,1.570796327,0,-2.32E-06,0,1.092673899,0.102999909,0.088700487,2.50E-04,0.141120469,0.562359653,-5.528073282,0.005875632,128445.8848,0.001269638,0,0.49231225,0,0.323823004,0.048484757,0.120004488,2.222087998,-12.28396202,-4.40E-04,0,0,0,0,-1.82E-10,0.0762,45.60367312,1.570796327,0,2,15,1013.25,340.3889,9.85E-06,0.013718
2.95E-05,0,0,-9.785411063,0,9.785437442,0,0,0,0,0,0.02272147,0.372075543,-2.756281212,9.787154704,1.570796327,0,-3.48E-06,0,1.092673854,0.102999864,0.088699872,2.50E-04,0.141120469,0.562358924,-5.528063715,0.005875632,128445.8848,0.001905232,0,0.49231225,0,0.323823004,0.048484757,0.120004488,2.222087998,-12.28399684,-9.31E-05,0,0,0,0,-4.11E-10,0.0762,45.60367312,1.570796327,0,2,15,1013.25,340.3889,1.48E-05,0.0146243
4.43E-05,0,0,-9.784538533,0,9.784564915,0,0,0,0,0,0.022721471,0.372075543,-2.756281212,9.787154704,1.570796327,0,-5.22E-06,0,1.092673786,0.102999795,0.088698949,2.50E-04,0.141120469,0.56235783,-5.528049366,0.005875632,128445.8848,0.002858622,0,0.49231225,0,0.323823004,0.048484757,0.120004488,2.222087998,-12.28332023,-3.62E-04,0,0,0,0,-9.25E-10,0.0762,45.60367312,1.570796327,0,2,15,1013.25,340.3889,2.22E-05,0.0151487
6.65E-05,0,0,-9.783229738,0,9.783256124,0,0,0,0,0,0.022721473,0.372075543,-2.756281212,9.787154704,1.570796327,0,-7.84E-06,0,1.092673683,0.102999693,0.088697565,2.50E-04,0.141120469,0.562356191,-5.528027847,0.005875632,128445.8848,0.004288707,0,0.49231225,0,0.323823004,0.048484757,0.120004488,2.222087998,-12.28340879,-2.84E-05,0,0,0,0,-2.08E-09,0.0762,45.60367312,1.570796327,0,2,15,1013.25,340.3889,3.33E-05,0.015677
9.97E-05,0,0,-9.781266546,0,9.781292937,0,0,0,0,0,0.022721477,0.372075543,-2.756281212,9.787154704,1.570796327,0,-1.18E-05,0,1.09267353,0.102999539,0.088695489,2.50E-04,0.141120469,0.562353732,-5.527995582,0.005875632,128445.8848,0.006433835,0,0.49231225,0,0.323823004,0.048484757,0.120004488,2.222087998,-12.28395643,-1.81E-04,0,0,0,0,-4.69E-09,0.0762,45.60367312,1.570796327,0,2,15,1013.25,340.3889,4.99E-05,0.01637
1.50E-04,0,0,-9.778321757,0,9.778348155,0,0,0,0,0,0.022721481,0.372075543,-2.756281212,9.787154704,1.570796327,0,-1.76E-05,0,1.092673299,0.102999309,0.088692378,2.50E-04,0.141120469,0.562350046,-5.52794721,0.005875632,128445.8848,0.009651526,0,0.49231225,0,0.323823004,0.048484757,0.120004488,2.222087998,-12.28328834,-3.24E-04,0,0,0,0,-1.06E-08,0.0762,45.60367312,1.570796327,0,2,15,1013.25,340.3889,7.48E-05,0.0168674
2.24E-04,0,0,-9.77390457,0,9.773930981,0,0,0,0,0,0.022721488,0.372075543,-2.756281212,9.787154704,1.570796327,0,-2.65E-05,0,1.092672954,0.102998963,0.088687716,2.50E-04,0.141120469,0.562344522,-5.527874713,0.005875632,128445.8848,0.014478063,0,0.49231225,0,0.323823004,0.048484757,0.120004488,2.222087998,-12.28294798,-1.46E-04,0,0,0,0,-2.38E-08,0.0762,45.60367312,1.570796327,0,2,15,1013.25,340.3889,1.12E-04,0.017355
3.37E-04,0,0,-9.767278785,0,9.767305214,0,0,0,0,0,0.022721499,0.372075543,-2.756281212,9.787154704,1.570796327,0,-3.97E-05,0,1.092672435,0.102998445,0.088680733,2.50E-04,0.141120469,0.562336246,-5.527766101,0.005875632,128445.8848,0.021717869,0,0.49231225,0,0.323823004,0.048484757,0.120004488,2.222087998,-12.2834644,4.51E-04,0,0,0,0,-5.35E-08,0.0762,45.60367312,1.570796327,0,2,15,1013.25,340.3889,1.68E-04,0.0178624
5.05E-04,0,0,-9.757340096,0,9.757366551,0,0,0,0,0,0.022721515,0.372075543,-2.756281212,9.787154704,1.570796327,0,-5.95E-05,0,1.092671658,0.102997667,0.08867028,2.50E-04,0.141120469,0.562323854,-5.527603486,0.005875632,128445.8848,0.032577577,0,0.49231225,0,0.323823004,0.048484757,0.120004488,2.222087998,-12.28303478,1.31E-04,0,0,0,0,-1.20E-07,0.0762,45.60367312,1.570796327,0,2,15,1013.25,340.3889,2.53E-04,0.0183593
7.58E-04,0,0,-9.742432036,0,9.742458532,0,0,0,0,0,0.02272154,0.372075543,-2.756281212,9.787154704,1.570796327,0,-8.93E-05,0,1.092670491,0.102996501,0.088654651,2.50E-04,0.141120469,0.562305319,-5.527360245,0.005875632,128445.8848,0.04886714,0,0.49231225,0,0.323823004,0.048484757,0.120004488,2.222087998,-12.28271877,3.89E-05,0,0,0,0,-2.71E-07,0.0762,45.60367312,1.570796327,0,2,15,1013.25,340.3889,3.79E-04,0.018855
0.001136273,0,0,-9.720069886,0,9.720096443,0,0,0,0,0,0.022721576,0.372075543,-2.756281212,9.787154704,1.570796327,0,-1.34E-04,0,1.092668742,0.102994752,0.08863132,2.50E-04,0.141120469,0.562277634,-5.526996918,0.005875632,128445.8848,0.073301484,0,0.49231225,0,0.323823004,0.048484757,0.120004488,2.222087998,-12.28160439,-2.86E-04,0,0,0,0,-6.09E-07,0.0762,45.60367312,1.570796327,0,2,15,1013.25,340.3889,5.68E-04,0.0194253
0.001704424,0,0,-9.683036765,0,9.683063423,0,0,0,0,0,0.022721631,0.372075543,-2.756281212,9.787154704,1.570796327,0,-2.01E-04,0,1.092666118,0.102992127,0.088596576,2.50E-04,0.141120469,0.562236368,-5.526455376,0.005875632,128445.8848,0.109953001,0,0.49231225,0,0.323823004,0.048484757,0.120004488,2.222087998,-12.28013122,-3.99E-04,0,0,0,0,-1.37E-06,0.0762,45.60367312,1.570796327,0,2,15,1013.25,340.3889,8.52E-04,0.0198604
0.002556651,0,0,-9.642784407,0,9.642811177,0,0,0,0,0,0.022721712,0.372075543,-2.756281212,9.787154704,1.570796327,0,-3.02E-04,0,1.092662181,0.102988191,0.088545027,2.50E-04,0.141120469,0.562175062,-5.525650827,0.005875632,128445.8848,0.157747964,0,0.49231225,0,0.323823004,0.048484757,0.120004488,2.222087998,-12.27872619,-1.89E-05,0,0,0,0,-3.09E-06,0.0762,45.60367312,1.570796327,0,2,15,1013.25,340.3889,0.001,0.0203333
0.003556651,0,0,-9.595552065,0,9.595578967,0,0,0,0,0,0.022721809,0.372075543,-2.756281212,9.787154704,1.570796327,0,-4.20E-04,0,1.092657562,0.102983572,0.088485404,2.50E-04,0.141120469,0.56210403,-5.524718651,0.005875632,128445.8848,0.209356073,0,0.49231225,0,0.323823004,0.048484757,0.120004488,2.222087998,-12.27602618,1.79E-04,0,0,0,0,-5.98E-06,0.0762,45.60367312,1.570796327,0,2,15,1013.25,340.3889,0.001,0.0207722
0.004556651,0,0,-9.548319325,0,9.54834636,0,0,0,0,0,0.022721905,0.372075543,-2.756281212,9.787154704,1.570796327,0,-5.38E-04,0,1.092652943,0.102978953,0.088426709,2.50E-04,0.141120469,0.562033975,-5.5237993,0.005875632,128445.8848,0.260964181,0,0.49231225,0,0.323823004,0.048484757,0.120004488,2.222087998,-12.27422604,2.20E-04,0,0,0,0,-9.82E-06,0.0762,45.60367312,1.570796327,0,2,15,1013.25,340.3889,0.001,0.0213698
0.005556651,0,0,-9.501086185,0,9.501113355,0,0,0,0,0,0.022722001,0.372075543,-2.756281212,9.787154704,1.570796327,0,-6.56E-04,0,1.092648324,0.102974334,0.088368939,2.50E-04,0.141120469,0.561964898,-5.522892777,0.005875632,128445.8848,0.312572289,0,0.49231225,0,0.323823004,0.048484757,0.120004488,2.222087998,-12.27187384,1.34E-04,0,0,0,0,-1.46E-05,0.0762,45.60367312,1.570796327,0,2,15,1013.25,340.3889,0.001,0.0220798
0.006556651,0,0,-9.453852645,0,9.453879951,0,0,0,0,0,0.022722097,0.372075543,-2.756281212,9.787154704,1.570796327,0,-7.74E-04,0,1.092643705,0.102969715,0.08831209,2.50E-04,0.141120469,0.561896799,-5.521999079,0.005875632,128445.8848,0.364180397,0,0.49231225,0,0.323823004,0.048484757,0.120004488,2.222087998,-12.27071635,-4.12E-05,0,0,0,0,-2.03E-05,0.0762,45.60367312,1.570796327,0,2,15,1013.25,340.3889,0.001,0.0227856
0.007556651,0,0,-9.406618707,0,9.40664615,0,0,0,0,0,0.022722193,0.372075543,-2.756281212,9.787154704,1.570796327,0,-8.93E-04,0,1.092639086,0.102965096,0.088256157,2.50E-04,0.141120469,0.561829676,-5.521118209,0.005875632,128445.8848,0.415788505,0,0.49231225,0,0.323823004,0.048484757,0.120004488,2.222087998,-12.26811113,-3.91E-04,0,0,0,0,-2.70E-05,0.0762,45.60367312,1.570796327,0,2,15,1013.25,340.3889,0.001,0.0234016
0.008556651,0,0,-9.359384369,0,9.359411951,0,0,0,0,0,0.022722289,0.372075543,-2.756281212,9.787154704,1.570796327,0,-0.001011034,0,1.092634467,0.102960477,0.088201137,2.50E-04,0.141120469,0.561763531,-5.520250165,0.005875632,128445.8848,0.467396613,0,0.49231225,0,0.323823004,0.048484757,0.120004488,2.222087998,-12.26653224,6.82E-05,0,0,0,0,-3.47E-05,0.0762,45.60367312,1.570796327,0,2,15,1013.25,340.3889,0.001,0.0237971
0.009556651,0,0,-9.312149656,0,9.312177379,0,0,0,0,0,0.022722893,0.372075543,-2.756281212,9.787154704,1.570797397,0,-0.001129465,0,1.092629849,0.102955858,0.088147025,2.50E-04,0.141120469,0.561698364,-5.519394949,0.005875632,128445.8848,0.519004721,9.77E-18,0.49231225,8.75E-16,0.323823004,0.048484757,0.120004488,2.222087998,-12.26413456,-4.06E-04,0,0,0,0,-4.33E-05,0.0762,45.60367312,1.570795257,3.14159215,2,15,1013.25,340.3889,0.001,0.024286
0.010556651,0,0,-9.264914546,0,9.264942412,0,0,0,0,0,0.022723661,0.372075543,-2.756281212,9.787154704,1.570798586,0,-0.00124795,0,1.09262523,0.102951239,0.088093818,2.50E-04,0.141120469,0.561634174,-5.51855256,0.005875632,128445.8848,0.570612829,9.77E-18,0.49231225,8.75E-16,0.323823004,0.048484757,0.120004488,2.222087998,-12.2630914,-1.29E-04,0,0,0,0,-5.28E-05,0.0762,45.60367312,1.570794068,3.141591962,2,15,1013.25,340.3889,0.001,0.0247054
0.011556651,0,0,-9.217679039,0,9.217707051,0,0,0,0,0,0.022724608,0.372075543,-2.756281212,9.787154704,1.570799893,0,-0.001366487,0,1.092620611,0.10294662,0.088041512,2.50E-04,0.141120469,0.561570961,-5.517722998,0.005875632,128445.8848,0.622220937,1.95E-17,0.49231225,1.75E-15,0.323823004,0.048484757,0.120004488,2.222087998,-12.26117041,3.08E-04,0,0,0,0,-6.34E-05,0.0762,45.60367312,1.570792761,3.141592144,2,15,1013.25,340.3889,0.001,0.02515
0.012556651,0,0,-9.170443136,0,9.170471295,0,0,0,0,0,0.022725752,0.372075543,-2.756281212,9.787154704,1.570801319,0,-0.001485075,0,1.092615992,0.102942002,0.087990103,2.50E-04,0.141120469,0.561508726,-5.516906264,0.005875632,128445.8848,0.673829045,0,0.49231225,0,0.323823004,0.048484757,0.120004488,2.222087998,-12.25876247,-8.07E-05,0,0,0,0,-7.48E-05,0.0762,45.60367312,1.570791335,3.141592332,2,15,1013.25,340.3889,0.001,0.0257412
0.013556651,0,0,-9.123206837,0,9.123235145,0,0,0,0,0,0.022727109,0.372075543,-2.756281212,9.787154704,1.570802863,0,-0.001603715,0,1.092611373,0.102937383,0.087939587,2.50E-04,0.141120469,0.561447468,-5.516102358,0.005875632,128445.8848,0.725437154,0,0.49231225,0,0.323823004,0.048484757,0.120004488,2.222087998,-12.2573286,4.85E-04,0,0,0,0,-8.73E-05,0.0762,45.60367312,1.57078979,3.141592419,2,15,1013.25,340.3889,0.001,0.0262119
0.014556651,0,0,-9.07597014,0,9.075998599,0,0,0,0,0,0.022728696,0.372075543,-2.756281212,9.787154704,1.570804526,0,-0.001722407,0,1.092606754,0.102932764,0.087889961,2.50E-04,0.141120469,0.561387188,-5.515311279,0.005875632,128445.8848,0.777045262,0,0.49231225,0,0.323823004,0.048484757,0.120004488,2.222087998,-12.25497949,-7.61E-05,0,0,0,0,-1.01E-04,0.0762,45.60367312,1.570788127,3.14159233,2,15,1013.25,340.3889,0.001,0.0266327
0.015556651,0,0,-9.028733047,0,9.02876166,0,0,0,0,0,0.022730531,0.372075543,-2.756281212,9.787154704,1.570806308,0,-0.001841146,0,1.092602135,0.102928145,0.087841221,2.50E-04,0.141120469,0.561327886,-5.514533029,0.005875632,128445.8848,0.82865337,0,0.49231225,0,0.323823004,0.048484757,0.120004488,2.222087998,-12.25365276,7.93E-05,0,0,0,0,-1.15E-04,0.0762,45.60367312,1.570786346,3.141592343,2,15,1013.25,340.3889,0.001,0.0269944
0.016556651,0,0,-8.981495557,0,8.981524326,0,0,0,0,0,0.02273263,0.372075543,-2.756281212,9.787154704,1.570808208,0,-0.001959932,0,1.092597516,0.102923526,0.087793363,2.50E-04,0.141120469,0.56126956,-5.513767607,0.005875632,128445.8848,0.880261478,-2.93E-17,0.49231225,-2.62E-15,0.323823004,0.048484757,0.120004488,2.222087998,-12.25210251,3.52E-04,0,0,0,0,-1.30E-04,0.0762,45.60367312,1.570784445,3.14159244,2,15,1013.25,340.3889,0.001,0.027322
0.017556651,0,0,-8.934257671,0,8.934286598,0,0,0,0,0,0.022735009,0.372075543,-2.756281212,9.787154704,1.570810228,0,-0.002078769,0,1.092592897,0.102918907,0.087746385,2.50E-04,0.141120469,0.561212213,-5.513015013,0.005875632,128445.8848,0.931869586,-9.77E-18,0.49231225,-8.75E-16,0.323823004,0.048484757,0.120004488,2.222087998,-12.25066631,-1.24E-04,0,0,0,0,-1.47E-04,0.0762,45.60367312,1.570782426,3.141592493,2,15,1013.25,340.3889,0.001,0.0276898
0.018556651,0,0,-8.887019388,0,8.887048475,0,0,0,0,0,0.022737687,0.372075543,-2.756281212,9.787154704,1.570812366,0,-0.002197652,0,1.092588278,0.102914288,0.087700282,2.50E-04,0.141120469,0.561155843,-5.512275248,0.005875632,128445.8848,0.983477694,-5.86E-17,0.49231225,-5.25E-15,0.323823004,0.048484757,0.120004488,2.222087998,-12.2485242,1.79E-04,0,0,0,0,-1.64E-04,0.0762,45.60367312,1.570780288,3.141592596,2,15,1013.25,340.3889,0.001,0.0280424
0.019556651,0,0,-8.839780708,0,8.839809958,0,0,0,0,0,0.022740679,0.372075543,-2.756281212,9.787154704,1.570814623,0,-0.002316579,0,1.092583659,0.102909669,0.087655052,2.50E-04,0.141120469,0.56110045,-5.511548311,0.005875632,128445.8848,1.035085802,-9.77E-17,0.49231225,-8.75E-15,0.323823004,0.048484757,0.120004488,2.222087998,-12.2469147,-4.88E-04,0,0,0,0,-1.82E-04,0.0762,45.60367312,1.57077803,3.141592654,2,15,1013.25,340.3889,0.001,0.0283607
0.020556651,0,0,-8.792541631,0,8.792571047,0,0,0,0,0,0.022744003,0.372075543,-2.756281212,9.787154704,1.570816999,0,-0.002435555,0,1.09257904,0.10290505,0.08761069,2.50E-04,0.141120469,0.561046035,-5.510834204,0.005875632,128445.8848,1.08669391,-1.27E-16,0.49231225,-1.14E-14,0.323823004,0.048484757,0.120004488,2.222087998,-12.24552264,3.03E-04,0,0,0,0,-2.01E-04,0.0762,45.60367312,1.570775654,3.141592654,2,15,1013.25,340.3889,0.001,0.0286828
0.021556651,0,0,-8.745302158,0,8.745331743,0,0,0,0,0,0.022747675,0.372075543,-2.756281212,9.787154704,1.570819494,0,-0.002554575,0,1.092574421,0.102900431,0.087567195,2.50E-04,0.141120469,0.560992598,-5.510132925,0.005875632,128445.8848,1.138302018,-1.56E-16,0.49231225,-1.40E-14,0.323823004,0.048484757,0.120004488,2.222087997,-12.24400365,4.08E-04,0,0,0,0,-2.21E-04,0.0762,45.60367312,1.570773159,3.141592654,2,15,1013.25,340.3889,0.001,0.0290779
0.022556651,0,0,-8.698062288,0,8.698092044,0,0,0,0,0,0.022751712,0.372075543,-2.756281212,9.787154704,1.570822108,0,-0.002673636,0,1.092569802,0.102895812,0.087524562,2.50E-04,0.141120469,0.560940138,-5.509444476,0.005875632,128445.8848,1.189910127,-2.25E-16,0.49231225,-2.01E-14,0.323823004,0.048484757,0.120004488,2.222087997,-12.24236014,1.19E-04,0,0,0,0,-2.43E-04,0.0762,45.60367312,1.570770545,3.141592654,2,15,1013.25,340.3889,0.001,0.0294431
0.023556651,0,0,-8.650822021,0,8.650851951,0,0,0,0,0,0.022756132,0.372075543,-2.756281212,9.787154704,1.570824842,0,-0.002792737,0,1.092565183,0.102891193,0.087482788,2.50E-04,0.141120469,0.560888656,-5.508768856,0.005875632,128445.8848,1.241518235,-3.32E-16,0.49231225,-2.97E-14,0.323823004,0.048484757,0.120004488,2.222087997,-12.24063361,1.09E-04,0,0,0,0,-2.65E-04,0.0762,45.60367312,1.570767812,3.141592654,2,15,1013.25,340.3889,0.001,0.0297635
0.024556651,0,0,-8.603581358,0,8.603611465,0,0,0,0,0,0.022760951,0.372075543,-2.756281212,9.787154704,1.570827694,0,-0.002911885,0,1.092560564,0.102886574,0.087441871,2.50E-04,0.141120469,0.560838151,-5.508106066,0.005875632,128445.8848,1.293126343,-4.40E-16,0.49231225,-3.94E-14,0.323823004,0.048484757,0.120004488,2.222087997,-12.2391282,-2.45E-04,0,0,0,0,-2.88E-04,0.0762,45.60367312,1.57076496,3.141592654,2,15,1013.25,340.3889,0.001,0.0301216
0.025556651,0,0,-8.556340298,0,8.556370585,0,0,0,0,0,0.022766186,0.372075543,-2.756281212,9.787154704,1.570830665,0,-0.003031073,0,1.092555945,0.102881955,0.087401807,2.50E-04,0.141120469,0.560788624,-5.507456105,0.005875632,128445.8848,1.344734451,-5.57E-16,0.49231225,-4.98E-14,0.323823004,0.048484757,0.120004488,2.222087997,-12.23813021,-4.60E-04,0,0,0,0,-3.12E-04,0.0762,45.60367312,1.570761988,3.141592654,2,15,1013.25,340.3889,0.001,0.0304523
0.026556651,0,0,-8.509098841,0,8.509129312,0,0,0,0,0,0.022771855,0.372075543,-2.756281212,9.787154704,1.570833756,0,-0.003150299,0,1.092551326,0.102877336,0.087362594,2.50E-04,0.141120469,0.560740075,-5.506818975,0.005875632,128445.8848,1.396342559,-7.13E-16,0.49231225,-6.38E-14,0.323823004,0.048484757,0.120004488,2.222087996,-12.23583854,4.63E-04,0,0,0,0,-3.37E-04,0.0762,45.60367312,1.570758898,3.141592654,2,15,1013.25,340.3889,0.001,0.0308011
0.027556651,0,0,-8.461856988,0,8.461887645,0,0,0,0,0,0.022777973,0.372075543,-2.756281212,9.787154704,1.570836966,0,-0.003269565,0,1.092546708,0.102872717,0.087324228,2.50E-04,0.141120469,0.560692503,-5.506194674,0.005875632,128445.8848,1.447950667,-9.48E-16,0.49231225,-8.48E-14,0.323823004,0.048484757,0.120004488,2.222087996,-12.23497084,-3.37E-04,0,0,0,0,-3.63E-04,0.0762,45.60367312,1.570755688,3.141592654,2,15,1013.25,340.3889,0.001,0.0311243
0.028556651,0,0,-8.414614737,0,8.414645585,0,0,0,0,0,0.022784558,0.372075543,-2.756281212,9.787154704,1.570840295,0,-0.003388866,5.23E-09,1.092542089,0.102868098,0.087286707,2.50E-04,0.141120469,0.560645909,-5.505583203,0.005875632,128445.8848,1.499558775,-1.15E-15,0.49231225,-1.03E-13,0.323823004,0.048484757,0.120004488,2.222087996,-12.23326021,-3.22E-04,0,0,0,0,-3.90E-04,0.0762,45.60367312,1.570752358,3.141592654,2,15,1013.25,340.3889,0.001,0.0314416
0.029556651,0,0,-8.36737209,0,8.367403131,0,0,0,0,0,0.022791628,0.372075543,-2.756281212,9.787154704,1.570843744,0,-0.003508206,5.86E-09,1.09253747,0.102863479,0.087250029,2.50E-04,0.141120469,0.560600292,-5.504984563,0.005875632,128445.8848,1.551166883,-1.46E-15,0.49231225,-1.30E-13,0.323823004,0.048484757,0.120004488,2.222087995,-12.23180733,5.35E-05,0,0,0,0,-4.18E-04,0.0762,45.60367312,1.57074891,3.141592654,2,15,1013.25,340.3889,0.001,0.0317568
0.030556651,0,0,-8.320129047,0,8.320160285,0,0,0,0,0,0.022799198,0.372075543,-2.756281212,9.787154704,1.570847312,0,-0.003627582,7.19E-09,1.092532851,0.102858861,0.087214189,2.50E-04,0.141120469,0.560555654,-5.504398754,0.005875632,128445.8848,1.602774991,-1.82E-15,0.49231225,-1.63E-13,0.323823004,0.048484757,0.120004488,2.222087995,-12.23100283,2.27E-04,0,0,0,0,-4.46E-04,0.0762,45.60367312,1.570745342,3.141592654,2,15,1013.25,340.3889,0.001,0.0321096
0.031556651,0,0,-8.272885607,0,8.272917045,0,0,0,0,0,0.022807287,0.372075543,-2.756281212,9.787154704,1.570850999,0,-0.003746994,5.70E-09,1.092528232,0.102854242,0.087179186,2.50E-04,0.141120469,0.560511993,-5.503825775,0.005875632,128445.8848,1.6543831,-2.27E-15,0.49231225,-2.03E-13,0.323823004,0.048484757,0.120004488,2.222087994,-12.22948474,-1.19E-04,0,0,0,0,-4.76E-04,0.0762,45.60367312,1.570741655,3.141592654,2,15,1013.25,340.3889,0.001,0.0325133
0.032556651,0,0,-8.22564177,0,8.225673412,0,0,0,0,0,0.02281591,0.372075543,-2.756281212,9.787154704,1.570854806,0,-0.003866442,0,1.092523613,0.102849623,0.087145017,2.50E-04,0.141120469,0.560469309,-5.503265627,0.005875632,128445.8848,1.705991208,-2.76E-15,0.49231225,-2.47E-13,0.323823004,0.048484757,0.120004488,2.222087994,-12.22834591,2.12E-04,0,0,0,0,-5.07E-04,0.0762,45.60367312,1.570737848,3.141592654,2,15,1013.25,340.3889,0.001,0.0329094
0.033556651,0,0,-8.178397536,0,8.178429387,0,0,0,0,0,0.022825085,0.372075543,-2.756281212,9.787154704,1.570858732,0,-0.003985924,0,1.092518994,0.102845004,0.08711168,2.50E-04,0.141120469,0.560427604,-5.50271831,0.005875632,128445.8848,1.757599316,-3.35E-15,0.49231225,-3.00E-13,0.323823004,0.048484757,0.120004488,2.222087993,-12.22655619,-1.98E-04,0,0,0,0,-5.39E-04,0.0762,45.60367312,1.570733922,3.141592654,2,15,1013.25,340.3889,0.001,0.0332412
0.034556651,0,0,-8.131152906,0,8.131184969,0,0,0,0,0,0.022834829,0.372075543,-2.756281212,9.787154704,1.570862777,0,-0.004105437,0,1.092514375,0.102840385,0.087079172,2.50E-04,0.141120469,0.560386876,-5.502183824,0.005875632,128445.8848,1.809207424,-4.06E-15,0.49231225,-3.64E-13,0.323823004,0.048484757,0.120004488,2.222087993,-12.22531424,3.77E-05,0,0,0,0,-5.72E-04,0.0762,45.60367312,1.570729876,3.141592654,2,15,1013.25,340.3889,0.001,0.0335802
0.035556651,0,0,-8.083907878,0,8.083940159,0,0,0,0,0,0.022845159,0.372075543,-2.756281212,9.787154704,1.570866943,0,-0.004224983,0,1.092509756,0.102835766,0.087047491,2.50E-04,0.141120469,0.560347126,-5.50166217,0.005875632,128445.8848,1.860815532,-4.88E-15,0.49231225,-4.36E-13,0.323823004,0.048484757,0.120004488,2.222087992,-12.22479382,2.63E-04,0,0,0,0,-6.06E-04,0.0762,45.60367312,1.570725711,3.141592654,2,15,1013.25,340.3889,0.001,0.0339321
0.036556651,0,0,-8.036662455,0,8.036694956,0,0,0,0,0,0.022856092,0.372075543,-2.756281212,9.787154704,1.570871227,0,-0.004344562,0,1.092505137,0.102831147,0.087016634,2.50E-04,0.141120469,0.560308354,-5.501153347,0.005875632,128445.8848,1.91242364,-5.82E-15,0.49231225,-5.21E-13,0.323823004,0.048484757,0.120004488,2.222087991,-12.2234994,1.12E-04,0,0,0,0,-6.40E-04,0.0762,45.60367312,1.570721426,3.141592654,2,15,1013.25,340.3889,0.001,0.0342623
0.037556651,0,0,-7.989416634,0,7.98944936,0,0,0,0,0,0.022867644,0.372075543,-2.756281212,9.787154704,1.570875632,0,-0.004464173,0,1.092500518,0.102826528,0.086986599,2.50E-04,0.141120469,0.560270559,-5.500657355,0.005875632,128445.8848,1.964031748,-6.88E-15,0.49231225,-6.16E-13,0.323823004,0.048484757,0.120004488,2.22208799,-12.22219587,-2.88E-04,0,0,0,0,-6.76E-04,0.0762,45.60367312,1.570717022,3.141592654,2,15,1013.25,340.3889,0.001,0.0347239
0.038556651,0,0,-7.942170417,0,7.942203373,0,0,0,0,0,0.022879834,0.372075543,-2.756281212,9.787154704,1.570880156,0,-0.004583813,0,1.092495899,0.102821909,0.086957384,2.50E-04,0.141120469,0.560233742,-5.500174196,0.005875632,128445.8848,2.015639856,-8.14E-15,0.49231225,-7.28E-13,0.323823004,0.048484757,0.120004488,2.222087989,-12.22112736,-3.03E-04,0,0,0,0,-7.13E-04,0.0762,45.60367312,1.570712498,3.141592654,2,15,1013.25,340.3889,0.001,0.0351751
0.039556651,0,0,-7.894923803,0,7.894956994,0,0,0,0,0,0.022892678,0.372075543,-2.756281212,9.787154704,1.570884799,0,-0.004703479,0,1.09249128,0.10281729,0.086928986,2.50E-04,0.141120469,0.560197903,-5.499703868,0.005875632,128445.8848,2.067247964,-9.59E-15,0.49231225,-8.58E-13,0.323823004,0.048484757,0.120004488,2.222087988,-12.21998978,2.24E-04,0,0,0,0,-7.51E-04,0.0762,45.60367312,1.570707854,3.141592654,2,15,1013.25,340.3889,0.001,0.0356167
0.040556651,0,0,-7.847676792,0,7.847710222,0,0,0,0,0,0.022906192,0.372075543,-2.756281212,9.787154704,1.570889563,0,-0.004823174,0,1.092486661,0.102812671,0.086901405,2.50E-04,0.141120469,0.560163042,-5.499246373,0.005875632,128445.8848,2.118856073,-1.12E-14,0.49231225,-1.00E-12,0.323823004,0.048484757,0.120004488,2.222087987,-12.21887217,4.31E-04,0,0,0,0,-7.89E-04,0.0762,45.60367312,1.570703091,3.141592654,2,15,1013.25,340.3889,0.001,0.0360718
0.041556651,0,0,-7.800429385,0,7.800463059,0,0,0,0,0,0.022920395,0.372075543,-2.756281212,9.787154704,1.570894446,0,-0.004942897,0,1.092482042,0.102808052,0.086874637,2.50E-04,0.141120469,0.560129159,-5.49880171,0.005875632,128445.8848,2.170464181,-1.31E-14,0.49231225,-1.17E-12,0.323823004,0.048484757,0.120004488,2.222087986,-12.21813146,3.32E-05,0,0,0,0,-8.29E-04,0.0762,45.60367312,1.570698208,3.141592654,2,15,1013.25,340.3889,0.001,0.0365596
0.042556651,0,0,-7.753181581,0,7.753215505,0,0,0,0,0,0.022935302,0.372075543,-2.756281212,9.787154704,1.570899449,0,-0.005062647,0,1.092477423,0.102803433,0.08684868,2.50E-04,0.141120469,0.560096253,-5.49836988,0.005875632,128445.8848,2.222072289,-1.52E-14,0.49231225,-1.36E-12,0.323823004,0.048484757,0.120004488,2.222087985,-12.21691574,-3.52E-06,0,0,0,0,-8.70E-04,0.0762,45.60367312,1.570693205,3.141592654,2,15,1013.25,340.3889,0.001,0.0371141
0.043556651,0,0,-7.705933381,0,7.705967558,0,0,0,0,0,0.022950932,0.372075543,-2.756281212,9.787154704,1.570904571,0,-0.005182422,0,1.092472804,0.102798814,0.086823533,2.50E-04,0.141120469,0.560064326,-5.497950882,0.005875632,128445.8848,2.273680397,-1.75E-14,0.49231225,-1.57E-12,0.323823004,0.048484757,0.120004488,2.222087984,-12.21580061,4.75E-04,0,0,0,0,-9.11E-04,0.0762,45.60367312,1.570688082,3.141592654,2,15,1013.25,340.3889,0.001,0.0379107
0.044556651,0,0,-7.658684783,0,7.658719221,0,0,0,0,0,0.0229673,0.372075543,-2.756281212,9.787154704,1.570909813,0,-0.005302221,5.11E-09,1.092468185,0.102794195,0.086799194,2.50E-04,0.141120469,0.560033376,-5.497544717,0.005875632,128445.8848,2.325288505,-2.02E-14,0.49231225,-1.81E-12,0.323823004,0.048484757,0.120004488,2.222087982,-12.21475373,4.63E-04,0,0,0,0,-9.54E-04,0.0762,45.60367312,1.57068284,3.141592654,2,15,1013.25,340.3889,0.001,0.0387372
0.045556651,0,0,-7.611435789,0,7.611470493,0,0,0,0,0,0.022984425,0.372075543,-2.756281212,9.787154704,1.570915176,0,-0.005422046,5.28E-09,1.092463566,0.102789576,0.086775661,2.50E-04,0.141120469,0.560003404,-5.497151385,0.005875632,128445.8848,2.376896613,-2.32E-14,0.49231225,-2.08E-12,0.323823004,0.048484757,0.120004488,2.222087981,-12.21439214,-1.58E-04,0,0,0,0,-9.97E-04,0.0762,45.60367312,1.570677478,3.141592654,2,15,1013.25,340.3889,0.001,0.0392845
0.046556651,0,0,-7.564186399,0,7.564221373,0,0,0,0,0,0.023002323,0.372075543,-2.756281212,9.787154704,1.570920658,0,-0.005541891,5.89E-09,1.092458948,0.102784957,0.086752932,2.50E-04,0.141120469,0.55997441,-5.496770886,0.005875632,128445.8848,2.428504721,-2.66E-14,0.49231225,-2.38E-12,0.323823004,0.048484757,0.120004488,2.222087979,-12.21324749,-2.22E-04,0,0,0,0,-0.001042051,0.0762,45.60367312,1.570671996,3.141592654,2,15,1013.25,340.3889,0.001,0.0396826
0.047556651,0,0,-7.516936611,0,7.516971863,0,0,0,0,0,0.023021011,0.372075543,-2.756281212,9.787154704,1.570926259,0,-0.005661761,6.41E-09,1.092454329,0.102780338,0.086731006,2.50E-04,0.141120468,0.559946394,-5.49640322,0.005875632,128445.8848,2.480112829,-3.03E-14,0.49231225,-2.71E-12,0.323823004,0.048484757,0.120004488,2.222087977,-12.2125037,-3.55E-04,0,0,0,0,-0.001087617,0.0762,45.60367312,1.570666394,3.141592654,2,15,1013.25,340.3889,0.001,0.0400304
0.048556651,0,0,-7.469686428,0,7.469721962,0,0,0,0,0,0.023040506,0.372075543,-2.756281212,9.787154704,1.570931981,0,-0.005781653,5.89E-09,1.09244971,0.102775719,0.086709881,2.50E-04,0.141120468,0.559919356,-5.496048388,0.005875632,128445.8848,2.531720937,-3.45E-14,0.49231225,-3.09E-12,0.323823004,0.048484757,0.120004488,2.222087976,-12.21142217,-7.30E-05,0,0,0,0,-0.001134167,0.0762,45.60367312,1.570660673,3.141592654,2,15,1013.25,340.3889,0.001,0.0403491
0.049556651,0,0,-7.422435847,0,7.422471671,0,0,0,0,0,0.023060826,0.372075543,-2.756281212,9.787154704,1.570937823,0,-0.005901564,6.70E-09,1.092445091,0.102771101,0.086689555,2.50E-04,0.141120468,0.559893295,-5.49570639,0.005875632,128445.8848,2.583329045,-3.92E-14,0.49231225,-3.51E-12,0.323823004,0.048484757,0.120004488,2.222087974,-12.21041926,-2.11E-04,0,0,0,0,-0.0011817,0.0762,45.60367312,1.570654831,3.141592654,2,15,1013.25,340.3889,0.001,0.0406265
0.050556651,0,0,-7.37518487,0,7.375220989,0,0,0,0,0,0.023081987,0.372075543,-2.756281212,9.787154704,1.570943784,0,-0.006021494,9.29E-09,1.092440472,0.102766482,0.086670027,2.50E-04,0.141120468,0.559868213,-5.495377225,0.005875632,128445.8848,2.634937154,-4.43E-14,0.49231225,-3.97E-12,0.323823004,0.048484757,0.120004488,2.222087971,-12.20951085,2.49E-04,0,0,0,0,-0.001230217,0.0762,45.60367312,1.570648869,3.141592654,2,15,1013.25,340.3889,0.001,0.0409913
0.051556651,0,0,-7.327933496,0,7.327969918,0,0,0,0,0,0.023104006,0.372075543,-2.756281212,9.787154704,1.570949866,0,-0.006141445,6.42E-09,1.092435853,0.102761863,0.086651295,2.50E-04,0.141120468,0.559844109,-5.495060894,0.005875632,128445.8848,2.686545262,-5.01E-14,0.49231225,-4.48E-12,0.323823004,0.048484757,0.120004488,2.222087969,-12.20958888,1.57E-04,0,0,0,0,-0.001279717,0.0762,45.60367312,1.570642788,3.141592654,2,15,1013.25,340.3889,0.001,0.0412706
0.052556651,0,0,-7.280681725,0,7.280718456,0,0,0,0,0,0.023126901,0.372075543,-2.756281212,9.787154704,1.570956067,0,-0.006261409,7.01E-09,1.092431234,0.102757244,0.086633359,2.50E-04,0.141120468,0.559820982,-5.494757398,0.005875632,128445.8848,2.73815337,-5.64E-14,0.49231225,-5.05E-12,0.323823004,0.048484757,0.120004488,2.222087967,-12.20874478,4.10E-04,0,0,0,0,-0.001330201,0.0762,45.60367312,1.570636587,3.141592654,2,15,1013.25,340.3889,0.001,0.0415611
0.053556651,0,0,-7.233429558,0,7.233466605,0,0,0,0,0,0.023150688,0.372075543,-2.756281212,9.787154704,1.570962388,0,-0.006381393,0,1.092426615,0.102752625,0.086616216,2.50E-04,0.141120468,0.559798834,-5.494466736,0.005875632,128445.8848,2.789761478,-6.33E-14,0.49231225,-5.67E-12,0.323823004,0.048484757,0.120004488,2.222087964,-12.20760443,1.03E-04,0,0,0,0,-0.001381669,0.0762,45.60367312,1.570630265,3.141592654,2,15,1013.25,340.3889,0.001,0.0418458
0.054556651,0,0,-7.186176995,0,7.186214365,0,0,0,0,0,0.023175385,0.372075543,-2.756281212,9.787154704,1.57096883,0,-0.006501395,0,1.092421996,0.102748006,0.086599866,2.50E-04,0.141120468,0.559777663,-5.494188908,0.005875632,128445.8848,2.841369586,-7.10E-14,0.49231225,-6.35E-12,0.323823004,0.048484757,0.120004488,2.222087962,-12.20738976,-4.54E-04,0,0,0,0,-0.001434122,0.0762,45.60367312,1.570623824,3.141592654,2,15,1013.25,340.3889,0.001,0.042185
0.055556651,0,0,-7.138924035,0,7.138961735,0,0,0,0,0,0.023201008,0.372075543,-2.756281212,9.787154704,1.570975391,0,-0.006621415,0,1.092417377,0.102743387,0.086584307,2.50E-04,0.141120468,0.55975747,-5.493923915,0.005875632,128445.8848,2.892977694,-7.94E-14,0.49231225,-7.11E-12,0.323823004,0.048484757,0.120004488,2.222087959,-12.20617155,3.57E-04,0,0,0,0,-0.00148756,0.0762,45.60367312,1.570617262,3.141592654,2,15,1013.25,340.3889,0.001,0.0424673
0.056556651,0,0,-7.091670678,0,7.091708717,0,0,0,0,0,0.023227575,0.372075543,-2.756281212,9.787154704,1.570982073,0,-0.006741448,0,1.092412758,0.102738768,0.086569538,2.50E-04,0.141120468,0.559738256,-5.493671756,0.005875632,128445.8848,2.944585802,-8.86E-14,0.49231225,-7.93E-12,0.323823004,0.048484757,0.120004488,2.222087956,-12.20552856,5.29E-05,0,0,0,0,-0.001541982,0.0762,45.60367312,1.570610581,3.141592654,2,15,1013.25,340.3889,0.001,0.0427397
0.057556651,0,0,-7.044416924,0,7.044455309,0,0,0,0,0,0.023255103,0.372075543,-2.756281212,9.787154704,1.570988874,0,-0.006861492,0,1.092408139,0.102734149,0.086555559,2.50E-04,0.141120468,0.559720019,-5.493432433,0.005875632,128445.8848,2.99619391,-9.87E-14,0.49231225,-8.84E-12,0.323823004,0.048484757,0.120004488,2.222087953,-12.2055776,-1.60E-04,0,0,0,0,-0.001597387,0.0762,45.60367312,1.570603779,3.141592654,2,15,1013.25,340.3889,0.001,0.043025
0.058556651,0,0,-6.997162774,0,6.997201513,0,0,0,0,0,0.023283609,0.372075543,-2.756281212,9.787154704,1.570995796,0,-0.006981549,0,1.09240352,0.10272953,0.086542367,2.50E-04,0.141120468,0.559702761,-5.493205944,0.005875632,128445.8848,3.047802018,-1.10E-13,0.49231225,-9.82E-12,0.323823004,0.048484757,0.120004488,2.222087949,-12.20508948,-4.51E-04,0,0,0,0,-0.001653776,0.0762,45.60367312,1.570596858,3.141592654,2,15,1013.25,340.3889,0.001,0.0432968
0.059556651,0,0,-6.949908228,0,6.949947329,0,0,0,0,0,0.02331311,0.372075543,-2.756281212,9.787154704,1.571002837,0,-0.007101621,0,1.092398901,0.102724911,0.086529963,2.50E-04,0.141120468,0.559686481,-5.492992291,0.005875632,128445.8848,3.099410127,-1.22E-13,0.49231225,-1.09E-11,0.323823004,0.048484757,0.120004488,2.222087946,-12.20415575,-1.11E-04,0,0,0,0,-0.00171115,0.0762,45.60367312,1.570589816,3.141592654,2,15,1013.25,340.3889,0.001,0.0435638
0.060556651,0,0,-6.902653285,0,6.902692757,0,0,0,0,0,0.023343622,0.372075543,-2.756281212,9.787154704,1.571009999,0,-0.007221703,0,1.092394282,0.102720292,0.086518344,2.50E-04,0.141120468,0.559671178,-5.492791474,0.005875632,128445.8848,3.151018235,-1.35E-13,0.49231225,-1.21E-11,0.323823004,0.048484757,0.120004488,2.222087942,-12.20362092,4.88E-04,0,0,0,0,-0.001769507,0.0762,45.60367312,1.570582655,3.141592654,2,15,1013.25,340.3889,0.001,0.0440574
0.061556651,0,0,-6.855397945,0,6.855437797,0,0,0,0,0,0.023375164,0.372075543,-2.756281212,9.787154704,1.571017281,0,-0.007341795,0,1.092389663,0.102715673,0.086507511,2.50E-04,0.141120468,0.559656854,-5.492603492,0.005875632,128445.8848,3.202626343,-1.49E-13,0.49231225,-1.33E-11,0.323823004,0.048484757,0.120004488,2.222087938,-12.20324516,3.87E-04,0,0,0,0,-0.001828848,0.0762,45.60367312,1.570575373,3.141592654,2,15,1013.25,340.3889,0.001,0.0443431
0.062556651,0,0,-6.808142209,0,6.80818245,0,0,0,0,0,0.023407751,0.372075543,-2.756281212,9.787154704,1.571024683,0,-0.007461899,0,1.092385044,0.102711054,0.086497463,2.50E-04,0.141120468,0.559643508,-5.492428345,0.005875632,128445.8848,3.254234451,-1.65E-13,0.49231225,-1.47E-11,0.323823004,0.048484757,0.120004488,2.222087934,-12.20231216,-5.92E-05,0,0,0,0,-0.001889173,0.0762,45.60367312,1.570567971,3.141592654,2,15,1013.25,340.3889,0.001,0.0446089
0.063556651,0,0,-6.760886077,0,6.760926715,0,0,0,0,0,0.023441402,0.372075543,-2.756281212,9.787154704,1.571032204,0,-0.007582009,0,1.092380425,0.102706435,0.086488198,2.50E-04,0.141120468,0.55963114,-5.492266035,0.005875632,128445.8848,3.305842559,-1.81E-13,0.49231225,-1.62E-11,0.323823004,0.048484757,0.120004488,2.22208793,-12.20214723,3.17E-04,0,0,0,0,-0.001950481,0.0762,45.60367312,1.570560449,3.141592654,2,15,1013.25,340.3889,0.001,0.0449027
0.064556651,0,0,-6.713629548,0,6.713670593,0,0,0,0,0,0.023476133,0.372075543,-2.756281212,9.787154704,1.571039847,0,-0.007702129,0,1.092375807,0.102701816,0.086479717,2.50E-04,0.141120468,0.55961975,-5.492116561,0.005875632,128445.8848,3.357450667,-2.00E-13,0.49231225,-1.79E-11,0.323823004,0.048484757,0.120004488,2.222087926,-12.20176016,2.97E-05,0,0,0,0,-0.002012772,0.0762,45.60367312,1.570552807,3.141592654,2,15,1013.25,340.3889,0.001,0.0451973
0.065556651,0,0,-6.666372622,0,6.666414085,0,0,0,0,0,0.023511961,0.372075543,-2.756281212,9.787154704,1.571047609,0,-0.007822254,0,1.092371188,0.102697197,0.086472018,2.50E-04,0.141120468,0.559609338,-5.491979923,0.005875632,128445.8848,3.409058775,-2.19E-13,0.49231225,-1.96E-11,0.323823004,0.048484757,0.120004488,2.222087921,-12.201578,2.08E-04,0,0,0,0,-0.002076045,0.0762,45.60367312,1.570545045,3.141592654,2,15,1013.25,340.3889,0.001,0.0454796
0.066556651,0,0,-6.619115301,0,6.619157191,0,0,0,0,0,0.023548904,0.372075543,-2.756281212,9.787154704,1.571055491,0,-0.007942388,0,1.092366569,0.102692578,0.086465101,2.50E-04,0.141120468,0.559599904,-5.491856121,0.005875632,128445.8848,3.460666883,-2.41E-13,0.49231225,-2.15E-11,0.323823004,0.048484757,0.120004488,2.222087916,-12.20098243,-4.73E-04,0,0,0,0,-0.002140302,0.0762,45.60367312,1.570537163,3.141592654,2,15,1013.25,340.3889,0.001,0.0458597
0.067556651,0,0,-6.571857582,0,6.57189991,0,0,0,0,0,0.023586978,0.372075543,-2.756281212,9.787154704,1.571063494,0,-0.008062527,0,1.09236195,0.10268796,0.086458966,2.50E-04,0.141120467,0.559591448,-5.491745156,0.005875632,128445.8848,3.512274991,-2.64E-13,0.49231225,-2.36E-11,0.323823004,0.048484757,0.120004488,2.222087911,-12.20111657,6.55E-06,0,0,0,0,-0.002205542,0.0762,45.60367312,1.57052916,3.141592654,2,15,1013.25,340.3889,0.001,0.0463206
0.068556651,0,0,-6.524599468,0,6.524642244,0,0,0,0,0,0.0236262,0.372075543,-2.756281212,9.787154704,1.571071616,0,-0.008182674,0,1.092357331,0.102683341,0.086453612,2.50E-04,0.141120467,0.559583971,-5.491647028,0.005875632,128445.8848,3.5638831,-2.88E-13,0.49231225,-2.58E-11,0.323823004,0.048484757,0.120004488,2.222087905,-12.2001761,1.12E-04,0,0,0,0,-0.002271765,0.0762,45.60367312,1.570521037,3.141592654,2,15,1013.25,340.3889,0.001,0.0466291
0.069556651,0,0,-6.477340956,0,6.477384192,0,0,0,0,0,0.023666588,0.372075543,-2.756281212,9.787154704,1.571079859,0,-0.008302821,0,1.092352712,0.102678722,0.086449039,2.50E-04,0.141120467,0.559577472,-5.491561737,0.005875632,128445.8848,3.615491208,-3.15E-13,0.49231225,-2.82E-11,0.323823004,0.048484757,0.120004488,2.2220879,-12.20014964,-1.51E-04,0,0,0,0,-0.002338968,0.0762,45.60367312,1.570512795,3.141592654,2,15,1013.25,340.3889,0.001,0.0468985
0.070556651,0,0,-6.430082049,0,6.430125756,0,0,0,0,0,0.023708158,0.372075543,-2.756281212,9.787154704,1.571088222,0,-0.008422973,0,1.092348093,0.102674103,0.086445247,2.50E-04,0.141120467,0.559571951,-5.491489283,0.005875632,128445.8848,3.667099316,-3.44E-13,0.49231225,-3.08E-11,0.323823004,0.048484757,0.120004488,2.222087894,-12.19972297,-2.07E-04,0,0,0,0,-0.002407154,0.0762,45.60367312,1.570504432,3.141592654,2,15,1013.25,340.3889,0.001,0.0471859
0.071556651,0,0,-6.382822745,0,6.382866935,0,0,0,0,0,0.023750928,0.372075543,-2.756281212,9.787154704,1.571096705,0,-0.008543126,0,1.092343474,0.102669484,0.086442234,2.50E-04,0.141120467,0.559567408,-5.491429666,0.005875632,128445.8848,3.718707424,-3.75E-13,0.49231225,-3.35E-11,0.323823004,0.048484757,0.120004488,2.222087888,-12.19981222,2.49E-04,0,0,0,0,-0.002476319,0.0762,45.60367312,1.570495949,3.141592654,2,15,1013.25,340.3889,0.001,0.0474877
0.072556651,0,0,-6.335563045,0,6.335607729,0,0,0,0,0,0.023794915,0.372075543,-2.756281212,9.787154704,1.571105308,0,-0.008663282,0,1.092338855,0.102664865,0.086440002,2.50E-04,0.141120467,0.559563843,-5.491382886,0.005875632,128445.8848,3.770315532,-4.08E-13,0.49231225,-3.65E-11,0.323823004,0.048484757,0.120004488,2.222087881,-12.1999407,-2.16E-05,0,0,0,0,-0.002546466,0.0762,45.60367312,1.570487346,3.141592654,2,15,1013.25,340.3889,0.001,0.0477767
0.073556651,0,0,-6.288302949,0,6.28834814,0,0,0,0,0,0.023840135,0.372075543,-2.756281212,9.787154704,1.571114031,0,-0.008783441,-5.89E-09,1.092334236,0.102660246,0.08643855,2.50E-04,0.141120467,0.559561256,-5.491348944,0.005875632,128445.8848,3.82192364,-4.43E-13,0.49231225,-3.97E-11,0.323823004,0.048484757,0.120004488,2.222087875,-12.19942427,1.89E-04,0,0,0,0,-0.002617594,0.0762,45.60367312,1.570478622,3.141592654,2,15,1013.25,340.3889,0.001,0.048095
0.074556651,0,0,-6.241042456,0,6.241088167,0,0,0,0,0,0.023886606,0.372075543,-2.756281212,9.787154704,1.571122875,0,-0.008903598,0,1.092329617,0.102655627,0.086437878,2.50E-04,0.141120467,0.559559648,-5.49132784,0.005875632,128445.8848,3.873531748,-4.81E-13,0.49231225,-4.31E-11,0.323823004,0.048484757,0.120004488,2.222087868,-12.19908011,-2.78E-04,0,0,0,0,-0.002689701,0.0762,45.60367312,1.570469779,3.141592654,2,15,1013.25,340.3889,0.001,0.04839
0.075556651,0,0,-6.193781567,0,6.193827811,0,0,0,0,0,0.023934345,0.372075543,-2.756281212,9.787154704,1.571131839,0,-0.009023754,-5.50E-09,1.092324998,0.102651008,0.086437985,2.50E-04,0.141120467,0.559559018,-5.491319574,0.005875632,128445.8848,3.925139856,-5.22E-13,0.49231225,-4.67E-11,0.323823004,0.048484757,0.120004488,2.22208786,-12.19992363,-3.66E-04,0,0,0,0,-0.002762788,0.0762,45.60367312,1.570460815,3.141592654,2,15,1013.25,340.3889,0.001,0.0486601
0.076556651,0,0,-6.146520282,0,6.146567072,0,0,0,0,0,0.023983369,0.372075543,-2.756281212,9.787154704,1.571140922,0,-0.009143911,0,1.092320379,0.102646389,0.086438873,2.50E-04,0.141120467,0.559559366,-5.491324145,0.005875632,128445.8848,3.976747964,-5.66E-13,0.49231225,-5.06E-11,0.323823004,0.048484757,0.120004488,2.222087853,-12.19906856,-3.83E-04,0,0,0,0,-0.002836854,0.0762,45.60367312,1.570451731,3.141592654,2,15,1013.25,340.3889,0.001,0.0489618
0.077556651,0,0,-6.0992586,0,6.099305952,0,0,0,0,0,0.024033695,0.372075543,-2.756281212,9.787154704,1.571150126,0,-0.009264066,0,1.09231576,0.10264177,0.086440541,2.50E-04,0.141120466,0.559560693,-5.491341555,0.005875632,128445.8848,4.028356073,-6.12E-13,0.49231225,-5.48E-11,0.323823004,0.048484757,0.120004488,2.222087845,-12.19979485,-6.12E-05,0,0,0,0,-0.002911899,0.0762,45.60367312,1.570442527,3.141592654,2,15,1013.25,340.3889,0.001,0.0492282
0.078556651,0,0,-6.051996523,0,6.052044449,0,0,0,0,0,0.024085339,0.372075543,-2.756281212,9.787154704,1.571159451,0,-0.009384219,-5.56E-09,1.092311141,0.102637151,0.086442989,2.50E-04,0.141120466,0.559562998,-5.491371804,0.005875632,128445.8848,4.079964181,-6.62E-13,0.49231225,-5.93E-11,0.323823004,0.048484757,0.120004488,2.222087837,-12.1994994,-1.44E-04,0,0,0,0,-0.002987922,0.0762,45.60367312,1.570433203,3.141592654,2,15,1013.25,340.3889,0.001,0.0494919
0.079556651,0,0,-6.004734049,0,6.004782565,0,0,0,0,0,0.02413832,0.372075543,-2.756281212,9.787154704,1.571168895,0,-0.009504369,-5.55E-09,1.092306522,0.102632532,0.086446217,2.50E-04,0.141120466,0.559566281,-5.491414891,0.005875632,128445.8848,4.131572289,-7.15E-13,0.49231225,-6.40E-11,0.323823004,0.048484757,0.120004488,2.222087828,-12.1989943,-3.19E-04,0,0,0,0,-0.003064923,0.0762,45.60367312,1.570423759,3.141592654,2,15,1013.25,340.3889,0.001,0.049756
0.080556651,0,0,-5.957471179,0,5.957520301,0,0,0,0,0,0.024192653,0.372075543,-2.756281212,9.787154704,1.571178459,0,-0.009624511,-7.00E-09,1.092301903,0.102627913,0.086450227,2.50E-04,0.141120466,0.559570542,-5.491470816,0.005875632,128445.8848,4.183180397,-7.72E-13,0.49231225,-6.91E-11,0.323823004,0.048484757,0.120004488,2.22208782,-12.19936758,-4.86E-05,0,0,0,0,-0.003142898,0.0762,45.60367312,1.570414194,3.141592654,2,15,1013.25,340.3889,0.001,0.0500443
0.081556651,0,0,-5.910207913,0,5.910257656,0,0,0,0,0,0.024248357,0.372075543,-2.756281212,9.787154704,1.571188144,0,-0.009744649,0,1.092297284,0.102623294,0.086455018,2.50E-04,0.141120466,0.559575782,-5.491539581,0.005875632,128445.8848,4.234788505,-8.32E-13,0.49231225,-7.44E-11,0.323823004,0.048484757,0.120004488,2.22208781,-12.19937122,3.93E-04,0,0,0,0,-0.00322185,0.0762,45.60367312,1.57040451,3.141592654,2,15,1013.25,340.3889,0.001,0.0503189
0.082556651,0,0,-5.862944251,0,5.862994631,0,0,0,0,0,0.024305447,0.372075543,-2.756281212,9.787154704,1.571197949,0,-0.00986478,-6.51E-09,1.092292666,0.102618675,0.08646059,2.50E-04,0.141120466,0.559582,-5.491621185,0.005875632,128445.8848,4.286396613,-8.96E-13,0.49231225,-8.02E-11,0.323823004,0.048484757,0.120004488,2.222087801,-12.20005125,-3.89E-04,0,0,0,0,-0.003301777,0.0762,45.60367312,1.570394705,3.141592654,2,15,1013.25,340.3889,0.001,0.0506165
0.083556651,0,0,-5.815680193,0,5.815731227,0,0,0,0,0,0.024363942,0.372075543,-2.756281212,9.787154704,1.571207873,0,-0.009984905,-5.86E-09,1.092288047,0.102614056,0.086466945,2.50E-04,0.141120466,0.559589196,-5.491715627,0.005875632,128445.8848,4.338004721,-9.64E-13,0.49231225,-8.63E-11,0.323823004,0.048484757,0.120004488,2.222087791,-12.20008492,-2.89E-04,0,0,0,0,-0.00338268,0.0762,45.60367312,1.57038478,3.141592654,2,15,1013.25,340.3889,0.001,0.0509612
0.084556651,0,0,-5.768415739,0,5.768467444,0,0,0,0,0,0.024423858,0.372075543,-2.756281212,9.787154704,1.571217918,0,-0.010105022,0,1.092283428,0.102609437,0.086474082,2.50E-04,0.141120466,0.559597371,-5.49182291,0.005875632,128445.8848,4.389612829,-1.04E-12,0.49231225,-9.27E-11,0.323823004,0.048484757,0.120004488,2.222087781,-12.20003955,2.80E-04,0,0,0,0,-0.003464556,0.0762,45.60367312,1.570374735,3.141592654,2,15,1013.25,340.3889,0.001,0.0512536
0.085556651,0,0,-5.721150888,0,5.721203284,0,0,0,0,0,0.024485212,0.372075543,-2.756281212,9.787154704,1.571228083,0,-0.010225127,0,1.092278809,0.102604819,0.086482003,2.50E-04,0.141120465,0.559606524,-5.491943031,0.005875632,128445.8848,4.441220937,-1.11E-12,0.49231225,-9.96E-11,0.323823004,0.048484757,0.120004488,2.22208777,-12.20051814,4.31E-04,0,0,0,0,-0.003547402,0.0762,45.60367312,1.57036457,3.141592654,2,15,1013.25,340.3889,0.001,0.0515564
0.086556651,0,0,-5.673885642,0,5.673938745,0,0,0,0,0,0.02454802,0.372075543,-2.756281212,9.787154704,1.571238369,0,-0.010345225,-5.13E-09,1.09227419,0.1026002,0.086490708,2.50E-04,0.141120465,0.559616656,-5.492075993,0.005875632,128445.8848,4.492829045,-1.19E-12,0.49231225,-1.07E-10,0.323823004,0.048484757,0.120004488,2.222087759,-12.19990644,-1.61E-04,0,0,0,0,-0.003631223,0.0762,45.60367312,1.570354285,3.141592654,2,15,1013.25,340.3889,0.001,0.0518872
0.087556651,0,0,-5.62662,0,5.62667383,0,0,0,0,0,0.024612301,0.372075543,-2.756281212,9.787154704,1.571248774,0,-0.010465312,0,1.092269571,0.102595581,0.086500197,2.50E-04,0.141120465,0.559627766,-5.492221794,0.005875632,128445.8848,4.544437154,-1.28E-12,0.49231225,-1.15E-10,0.323823004,0.048484757,0.120004488,2.222087748,-12.20018638,-2.48E-05,0,0,0,0,-0.003716014,0.0762,45.60367312,1.57034388,3.141592654,2,15,1013.25,340.3889,0.001,0.0521534
0.088556651,0,0,-5.579353962,0,5.579408539,0,0,0,0,0,0.024678072,0.372075543,-2.756281212,9.787154704,1.571259299,0,-0.010585387,-6.65E-09,1.092264952,0.102590962,0.086510472,2.50E-04,0.141120465,0.559639854,-5.492380436,0.005875632,128445.8848,4.596045262,-1.37E-12,0.49231225,-1.23E-10,0.323823004,0.048484757,0.120004488,2.222087736,-12.20103067,-3.64E-05,0,0,0,0,-0.003801776,0.0762,45.60367312,1.570333354,3.141592654,2,15,1013.25,340.3889,0.001,0.0524131
0.089556651,0,0,-5.532087529,0,5.532142872,0,0,0,0,0,0.024745348,0.372075543,-2.756281212,9.787154704,1.571269945,0,-0.01070545,-6.42E-09,1.092260333,0.102586343,0.086521533,2.50E-04,0.141120465,0.559652921,-5.492551917,0.005875632,128445.8848,4.64765337,-1.47E-12,0.49231225,-1.31E-10,0.323823004,0.048484757,0.120004488,2.222087724,-12.20114343,-2.31E-04,0,0,0,0,-0.003888507,0.0762,45.60367312,1.570322709,3.141592654,2,15,1013.25,340.3889,0.001,0.0526931
0.090556651,0,0,-5.484820699,0,5.48487683,0,0,0,0,0,0.024814147,0.372075543,-2.756281212,9.787154704,1.57128071,0,-0.0108255,-5.85E-09,1.092255714,0.102581724,0.086533382,2.50E-04,0.141120464,0.559666966,-5.492736239,0.005875632,128445.8848,4.699261478,-1.57E-12,0.49231225,-1.41E-10,0.323823004,0.048484757,0.120004488,2.222087711,-12.20156176,-3.57E-04,0,0,0,0,-0.003976206,0.0762,45.60367312,1.570311943,3.141592654,2,15,1013.25,340.3889,0.001,0.0529892
0.091556651,0,0,-5.437553473,0,5.437610414,0,0,0,0,0,0.024884486,0.372075543,-2.756281212,9.787154704,1.571291596,0,-0.010945536,0,1.092251095,0.102577105,0.086546019,2.50E-04,0.141120464,0.559681989,-5.492933402,0.005875632,128445.8848,4.750869586,-1.68E-12,0.49231225,-1.50E-10,0.323823004,0.048484757,0.120004488,2.222087698,-12.20138293,2.86E-05,0,0,0,0,-0.004064874,0.0762,45.60367312,1.570301058,3.141592654,2,15,1013.25,340.3889,0.001,0.0532581
0.092556651,0,0,-5.390285852,0,5.390343625,0,0,0,0,0,0.024956382,0.372075543,-2.756281212,9.787154704,1.571302601,0,-0.011065559,-5.38E-09,1.092246476,0.102572486,0.086559445,2.50E-04,0.141120464,0.559697992,-5.493143405,0.005875632,128445.8848,4.802477694,-1.79E-12,0.49231225,-1.61E-10,0.323823004,0.048484757,0.120004488,2.222087685,-12.20213219,3.61E-04,0,0,0,0,-0.004154509,0.0762,45.60367312,1.570290052,3.141592654,2,15,1013.25,340.3889,0.001,0.053528
0.093556651,0,0,-5.343017835,0,5.343076462,0,0,0,0,0,0.025029853,0.372075543,-2.756281212,9.787154704,1.571313727,0,-0.011185564,-6.41E-09,1.092241857,0.102567867,0.086573662,2.50E-04,0.141120464,0.559714972,-5.493366249,0.005875632,128445.8848,4.854085802,-1.91E-12,0.49231225,-1.71E-10,0.323823004,0.048484757,0.120004488,2.222087671,-12.20273603,4.58E-04,0,0,0,0,-0.004245109,0.0762,45.60367312,1.570278927,3.141592654,2,15,1013.25,340.3889,0.001,0.0540064
0.094556651,0,0,-5.295749423,0,5.295808928,0,0,0,0,0,0.025104914,0.372075543,-2.756281212,9.787154704,1.571324972,0,-0.011305554,-6.82E-09,1.092237238,0.102563248,0.08658867,2.50E-04,0.141120464,0.559732931,-5.493601934,0.005875632,128445.8848,4.90569391,-2.04E-12,0.49231225,-1.83E-10,0.323823004,0.048484757,0.120004488,2.222087657,-12.20281557,4.37E-04,0,0,0,0,-0.004336673,0.0762,45.60367312,1.570267681,3.141592654,2,15,1013.25,340.3889,0.001,0.05432
0.095556651,0,0,-5.248480615,0,5.248541023,0,0,0,0,0,0.025181583,0.372075543,-2.756281212,9.787154704,1.571336338,0,-0.011425526,-5.51E-09,1.092232619,0.102558629,0.086604471,2.50E-04,0.141120463,0.559751868,-5.49385046,0.005875632,128445.8848,4.957302018,-2.18E-12,0.49231225,-1.95E-10,0.323823004,0.048484757,0.120004488,2.222087642,-12.20376519,3.58E-04,0,0,0,0,-0.004429201,0.0762,45.60367312,1.570256316,3.141592654,2,15,1013.25,340.3889,0.001,0.0547178
0.096556651,0,0,-5.201211411,0,5.201272748,0,0,0,0,0,0.025259877,0.372075543,-2.756281212,9.787154704,1.571347823,0,-0.011545484,0,1.092228,0.10255401,0.086621066,2.50E-04,0.141120463,0.559771784,-5.494111828,0.005875632,128445.8848,5.008910127,-2.32E-12,0.49231225,-2.08E-10,0.323823004,0.048484757,0.120004488,2.222087626,-12.20383098,2.34E-05,0,0,0,0,-0.004522695,0.0762,45.60367312,1.57024483,3.141592654,2,15,1013.25,340.3889,0.001,0.0551473
0.097556651,0,0,-5.153941812,0,5.154004104,0,0,0,0,0,0.025339813,0.372075543,-2.756281212,9.787154704,1.571359429,0,-0.011665424,0,1.092223381,0.102549391,0.086638456,2.50E-04,0.141120463,0.559792679,-5.494386037,0.005875632,128445.8848,5.060518235,-2.47E-12,0.49231225,-2.21E-10,0.323823004,0.048484757,0.120004488,2.222087611,-12.20415404,-3.60E-04,0,0,0,0,-0.00461715,0.0762,45.60367312,1.570233225,3.141592654,2,15,1013.25,340.3889,0.001,0.0555423
0.098556651,0,0,-5.106671817,0,5.106735091,0,0,0,0,0,0.025421407,0.372075543,-2.756281212,9.787154704,1.571371154,0,-0.01178534,0,1.092218762,0.102544772,0.086656643,2.50E-04,0.141120463,0.559814552,-5.494673088,0.005875632,128445.8848,5.112126343,-2.63E-12,0.49231225,-2.35E-10,0.323823004,0.048484757,0.120004488,2.222087594,-12.20449339,2.66E-04,0,0,0,0,-0.004712564,0.0762,45.60367312,1.570221499,3.141592654,2,15,1013.25,340.3889,0.001,0.0559672
0.099556651,0,0,-5.059401426,0,5.059465711,0,0,0,0,0,0.025504677,0.372075543,-2.756281212,9.787154704,1.571383,0,-0.011905237,0,1.092214143,0.102540153,0.086675629,2.50E-04,0.141120462,0.559837404,-5.494972981,0.005875632,128445.8848,5.163734451,-2.79E-12,0.49231225,-2.50E-10,0.323823004,0.048484757,0.120004488,2.222087577,-12.20509332,2.57E-04,0,0,0,0,-0.004808937,0.0762,45.60367312,1.570209654,3.141592654,2,15,1013.25,340.3889,0.001,0.0563869
0.100556651,0,0,-5.012130641,0,5.012195965,0,0,0,0,0,0.02558964,0.372075543,-2.756281212,9.787154704,1.571394965,0,-0.012025111,0,1.092209524,0.102535534,0.086695414,2.50E-04,0.141120462,0.559861234,-5.495285716,0.005875632,128445.8848,5.215342559,-2.97E-12,0.49231225,-2.65E-10,0.323823004,0.048484757,0.120004488,2.22208756,-12.20591012,1.27E-04,0,0,0,0,-0.004906267,0.0762,45.60367312,1.570197689,3.141592654,2,15,1013.25,340.3889,0.001,0.0567782
0.101556651,0,0,-4.96485946,0,4.964925853,0,0,0,0,0,0.025676312,0.372075543,-2.756281212,9.787154704,1.57140705,0,-0.012144964,0,1.092204906,0.102530915,0.086716,2.50E-04,0.141120462,0.559886042,-5.495611293,0.005875632,128445.8848,5.266950667,-3.15E-12,0.49231225,-2.82E-10,0.323823004,0.048484757,0.120004488,2.222087542,-12.20716292,-4.59E-04,0,0,0,0,-0.005004555,0.0762,45.60367312,1.570185604,3.141592654,2,15,1013.25,340.3889,0.001,0.0571737
0.102556651,0,0,-4.917587883,0,4.917655377,0,0,0,0,0,0.02576471,0.372075543,-2.756281212,9.787154704,1.571419255,0,-0.012264794,0,1.092200287,0.102526296,0.08673739,2.50E-04,0.141120462,0.55991183,-5.495949712,0.005875632,128445.8848,5.318558775,-3.34E-12,0.49231225,-2.99E-10,0.323823004,0.048484757,0.120004488,2.222087524,-12.2069235,3.62E-04,0,0,0,0,-0.005103799,0.0762,45.60367312,1.570173399,3.141592653,2,15,1013.25,340.3889,0.001,0.0575561
0.103556651,0,0,-4.870315911,0,4.870384538,0,0,0,0,0,0.025854852,0.372075543,-2.756281212,9.787154704,1.571431579,0,-0.012384602,-7.27E-09,1.092195668,0.102521677,0.086759584,2.50E-04,0.141120461,0.559938596,-5.496300974,0.005875632,128445.8848,5.370166883,-3.54E-12,0.49231225,-3.17E-10,0.323823004,0.048484757,0.120004488,2.222087505,-12.20821004,-4.87E-05,0,0,0,0,-0.005203997,0.0762,45.60367312,1.570161074,3.141592644,2,15,1013.25,340.3889,0.001,0.0579282
0.104556651,0,0,-4.823043544,0,4.823113337,0,0,0,0,0,0.025946754,0.372075543,-2.756281212,9.787154704,1.571444024,0,-0.012504388,-8.57E-09,1.092191049,0.102517059,0.086782585,2.50E-04,0.141120461,0.55996634,-5.496665078,0.005875632,128445.8848,5.421774991,-3.76E-12,0.49231225,-3.36E-10,0.323823004,0.048484757,0.120004488,2.222087485,-12.20879948,1.64E-04,0,0,0,0,-0.005305152,0.0762,45.60367312,1.57014863,3.141592632,2,15,1013.25,340.3889,0.001,0.0582992
0.105556651,0,0,-4.775770782,0,4.775841776,0,0,0,0,0,0.026040433,0.372075543,-2.756281212,9.787154704,1.571456588,0,-0.012624147,-1.07E-08,1.09218643,0.10251244,0.086806394,2.50E-04,0.141120461,0.559995063,-5.497042026,0.005875632,128445.8848,5.4733831,-3.98E-12,0.49231225,-3.56E-10,0.323823004,0.048484757,0.120004488,2.222087465,-12.20972344,-2.69E-04,0,0,0,0,-0.005407258,0.0762,45.60367312,1.570136066,3.141592618,2,15,1013.25,340.3889,0.001,0.0586583
0.106556651,0,0,-4.728497625,0,4.728569855,0,0,0,0,0,0.026135906,0.372075543,-2.756281212,9.787154704,1.571469272,0,-0.012743881,-1.18E-08,1.092181811,0.102507821,0.086831013,2.50E-04,0.14112046,0.560024765,-5.497431816,0.005875632,128445.8848,5.524991208,-4.21E-12,0.49231225,-3.77E-10,0.323823004,0.048484757,0.120004488,2.222087445,-12.2101625,-3.72E-05,0,0,0,0,-0.005510315,0.0762,45.60367312,1.570123381,3.141592602,2,15,1013.25,340.3889,0.001,0.0590842
